{"germany, berlin":[{"address_components":[{"long_name":"Berlin","short_name":"Berlin","types":["locality","political"]},{"long_name":"Berlin","short_name":"Berlin","types":["administrative_area_level_1","political"]},{"long_name":"Deutschland","short_name":"DE","types":["country","political"]}],"formatted_address":"Berlin, Deutschland","geometry":{"bounds":{"northeast":{"lat":52.6754542,"lng":13.7611176},"southwest":{"lat":52.33962959999999,"lng":13.0891553}},"location":{"lat":52.52000659999999,"lng":13.404954},"location_type":"APPROXIMATE","viewport":{"northeast":{"lat":52.6754542,"lng":13.7611176},"southwest":{"lat":52.33962959999999,"lng":13.0891553}}},"place_id":"ChIJAVkDPzdOqEcRcDteW0YgIQQ","types":["locality","political"]}],"berlin, germany":[{"address_components":[{"long_name":"Berlin","short_name":"Berlin","types":["locality","political"]},{"long_name":"Berlin","short_name":"Berlin","types":["administrative_area_level_1","political"]},{"long_name":"Deutschland","short_name":"DE","types":["country","political"]}],"formatted_address":"Berlin, Deutschland","geometry":{"bounds":{"northeast":{"lat":52.6754542,"lng":13.7611176},"southwest":{"lat":52.33962959999999,"lng":13.0891553}},"location":{"lat":52.52000659999999,"lng":13.404954},"location_type":"APPROXIMATE","viewport":{"northeast":{"lat":52.6754542,"lng":13.7611176},"southwest":{"lat":52.33962959999999,"lng":13.0891553}}},"place_id":"ChIJAVkDPzdOqEcRcDteW0YgIQQ","types":["locality","political"]}],"mannheim, germany":[{"address_components":[{"long_name":"Mannheim","short_name":"MA","types":["locality","political"]},{"long_name":"Baden-Württemberg","short_name":"BW","types":["administrative_area_level_1","political"]},{"long_name":"Deutschland","short_name":"DE","types":["country","political"]}],"formatted_address":"Mannheim, Deutschland","geometry":{"bounds":{"northeast":{"lat":49.5904894,"lng":8.5899901},"southwest":{"lat":49.4103619,"lng":8.4141602}},"location":{"lat":49.4874592,"lng":8.466039499999999},"location_type":"APPROXIMATE","viewport":{"northeast":{"lat":49.5904894,"lng":8.5899901},"southwest":{"lat":49.4103619,"lng":8.4141602}}},"place_id":"ChIJRT-OUSTMl0cRh-YGpHr-5LE","types":["locality","political"]}],"singen, germany":[{"address_components":[{"long_name":"Singen (Hohentwiel)","short_name":"Singen (Hohentwiel)","types":["locality","political"]},{"long_name":"Konstanz","short_name":"KN","types":["administrative_area_level_3","political"]},{"long_name":"Freiburg","short_name":"Freiburg","types":["administrative_area_level_2","political"]},{"long_name":"Baden-Württemberg","short_name":"BW","types":["administrative_area_level_1","political"]},{"long_name":"Deutschland","short_name":"DE","types":["country","political"]}],"formatted_address":"Singen (Hohentwiel), Deutschland","geometry":{"bounds":{"northeast":{"lat":47.8169406,"lng":8.9267171},"southwest":{"lat":47.6968034,"lng":8.8084378}},"location":{"lat":47.7670971,"lng":8.8722387},"location_type":"APPROXIMATE","viewport":{"northeast":{"lat":47.8169406,"lng":8.9267171},"southwest":{"lat":47.6968034,"lng":8.8084378}}},"place_id":"ChIJn_6K-jN9mkcR7yzLmUD5-aM","types":["locality","political"]}],"frankfurt, germany":[{"address_components":[{"long_name":"Frankfurt","short_name":"Frankfurt","types":["locality","political"]},{"long_name":"Darmstadt","short_name":"DA","types":["administrative_area_level_2","political"]},{"long_name":"Hessen","short_name":"HE","types":["administrative_area_level_1","political"]},{"long_name":"Deutschland","short_name":"DE","types":["country","political"]}],"formatted_address":"Frankfurt, Deutschland","geometry":{"bounds":{"northeast":{"lat":50.2272095,"lng":8.8003977},"southwest":{"lat":50.0152145,"lng":8.4727299}},"location":{"lat":50.1109221,"lng":8.6821267},"location_type":"APPROXIMATE","viewport":{"northeast":{"lat":50.2272095,"lng":8.8003977},"southwest":{"lat":50.0152145,"lng":8.4727299}}},"place_id":"ChIJxZZwR28JvUcRAMawKVBDIgQ","types":["locality","political"]}],"hamburg, germany":[{"address_components":[{"long_name":"Hamburg","short_name":"Hamburg","types":["locality","political"]},{"long_name":"Hamburg","short_name":"HH","types":["administrative_area_level_1","political"]},{"long_name":"Deutschland","short_name":"DE","types":["country","political"]}],"formatted_address":"Hamburg, Deutschland","geometry":{"bounds":{"northeast":{"lat":53.7394338,"lng":10.32528},"southwest":{"lat":53.3962857,"lng":9.7301316}},"location":{"lat":53.5510846,"lng":9.9936818},"location_type":"APPROXIMATE","viewport":{"northeast":{"lat":53.717145,"lng":10.123492},"southwest":{"lat":53.399999,"lng":9.732151000000002}}},"place_id":"ChIJuRMYfoNhsUcRoDrWe_I9JgQ","types":["locality","political"]}],"germany / kiel":[{"address_components":[{"long_name":"Kiel","short_name":"KI","types":["locality","political"]},{"long_name":"Schleswig-Holstein","short_name":"SH","types":["administrative_area_level_1","political"]},{"long_name":"Deutschland","short_name":"DE","types":["country","political"]}],"formatted_address":"Kiel, Deutschland","geometry":{"bounds":{"northeast":{"lat":54.4329274,"lng":10.2186004},"southwest":{"lat":54.2506983,"lng":10.0327536}},"location":{"lat":54.3232927,"lng":10.1227652},"location_type":"APPROXIMATE","viewport":{"northeast":{"lat":54.4329274,"lng":10.2186004},"southwest":{"lat":54.2506983,"lng":10.0327536}}},"place_id":"ChIJrZfujw1WskcRIANYxmOJJAQ","types":["locality","political"]}],"germany, nuremberg":[{"address_components":[{"long_name":"Nürnberg","short_name":"Nord","types":["locality","political"]},{"long_name":"Mittelfranken","short_name":"Mittelfranken","types":["administrative_area_level_2","political"]},{"long_name":"Bayern","short_name":"BY","types":["administrative_area_level_1","political"]},{"long_name":"Deutschland","short_name":"DE","types":["country","political"]}],"formatted_address":"Nürnberg, Deutschland","geometry":{"bounds":{"northeast":{"lat":49.5407533,"lng":11.2825956},"southwest":{"lat":49.3314338,"lng":10.9887327}},"location":{"lat":49.45203,"lng":11.07675},"location_type":"APPROXIMATE","viewport":{"northeast":{"lat":49.5407533,"lng":11.2135138},"southwest":{"lat":49.3314338,"lng":10.9887327}}},"place_id":"ChIJ0xy2ta5Xn0cRtyGMqYWvXd0","types":["locality","political"]}],"bremen, germany":[{"address_components":[{"long_name":"Bremen","short_name":"Bremen","types":["locality","political"]},{"long_name":"Bremen","short_name":"Bremen","types":["administrative_area_level_3","political"]},{"long_name":"Bremen","short_name":"HB","types":["administrative_area_level_1","political"]},{"long_name":"Deutschland","short_name":"DE","types":["country","political"]}],"formatted_address":"Bremen, Deutschland","geometry":{"bounds":{"northeast":{"lat":53.2289105,"lng":8.9908131},"southwest":{"lat":53.0116038,"lng":8.4817585}},"location":{"lat":53.07929619999999,"lng":8.8016937},"location_type":"APPROXIMATE","viewport":{"northeast":{"lat":53.2289105,"lng":8.9908131},"southwest":{"lat":53.0116038,"lng":8.4817585}}},"place_id":"ChIJNePuDBAosUcRUd83-VyI6MI","types":["locality","political"]}],"landshut, germany":[{"address_components":[{"long_name":"Landshut","short_name":"LA","types":["locality","political"]},{"long_name":"Niederbayern","short_name":"Niederbayern","types":["administrative_area_level_2","political"]},{"long_name":"Bayern","short_name":"BY","types":["administrative_area_level_1","political"]},{"long_name":"Deutschland","short_name":"DE","types":["country","political"]}],"formatted_address":"Landshut, Deutschland","geometry":{"bounds":{"northeast":{"lat":48.5955946,"lng":12.2844885},"southwest":{"lat":48.5070023,"lng":12.0182612}},"location":{"lat":48.5441917,"lng":12.1468532},"location_type":"APPROXIMATE","viewport":{"northeast":{"lat":48.5955946,"lng":12.2844885},"southwest":{"lat":48.5070023,"lng":12.0182612}}},"place_id":"ChIJe9zDlQcmnkcRIK83CaQlHQQ","types":["locality","political"]}],"germany":[{"address_components":[{"long_name":"Deutschland","short_name":"DE","types":["country","political"]}],"formatted_address":"Deutschland","geometry":{"bounds":{"northeast":{"lat":55.0738232,"lng":15.0418962},"southwest":{"lat":47.2701115,"lng":5.8663425}},"location":{"lat":51.165691,"lng":10.451526},"location_type":"APPROXIMATE","viewport":{"northeast":{"lat":55.0738232,"lng":15.0418962},"southwest":{"lat":47.2701115,"lng":5.8663425}}},"place_id":"ChIJa76xwh5ymkcRW-WRjmtd6HU","types":["country","political"]}],"düsseldorf, germany":[{"address_components":[{"long_name":"Düsseldorf","short_name":"Düsseldorf","types":["locality","political"]},{"long_name":"Düsseldorf","short_name":"Düsseldorf","types":["administrative_area_level_2","political"]},{"long_name":"Nordrhein-Westfalen","short_name":"NRW","types":["administrative_area_level_1","political"]},{"long_name":"Deutschland","short_name":"DE","types":["country","political"]}],"formatted_address":"Düsseldorf, Deutschland","geometry":{"bounds":{"northeast":{"lat":51.35253429999999,"lng":6.939938799999999},"southwest":{"lat":51.1243752,"lng":6.6887617}},"location":{"lat":51.2277411,"lng":6.7734556},"location_type":"APPROXIMATE","viewport":{"northeast":{"lat":51.35253429999999,"lng":6.939938799999999},"southwest":{"lat":51.1243752,"lng":6.6887617}}},"place_id":"ChIJB1lG8XvJuEcRsHMqSvxgJwQ","types":["locality","political"]}],"koblenz, germany":[{"address_components":[{"long_name":"Koblenz","short_name":"KO","types":["locality","political"]},{"long_name":"Rheinland-Pfalz","short_name":"RP","types":["administrative_area_level_1","political"]},{"long_name":"Deutschland","short_name":"DE","types":["country","political"]}],"formatted_address":"Koblenz, Deutschland","geometry":{"bounds":{"northeast":{"lat":50.4095948,"lng":7.696415399999999},"southwest":{"lat":50.2829914,"lng":7.480694}},"location":{"lat":50.3569429,"lng":7.5889959},"location_type":"APPROXIMATE","viewport":{"northeast":{"lat":50.4095948,"lng":7.696415399999999},"southwest":{"lat":50.2829914,"lng":7.480694}}},"place_id":"ChIJnX0jdld7vkcRYLPaENXUIgQ","types":["locality","political"]}],"bamberg, germany":[{"address_components":[{"long_name":"Bamberg","short_name":"BA","types":["locality","political"]},{"long_name":"Oberfranken","short_name":"Oberfranken","types":["administrative_area_level_2","political"]},{"long_name":"Bayern","short_name":"BY","types":["administrative_area_level_1","political"]},{"long_name":"Deutschland","short_name":"DE","types":["country","political"]}],"formatted_address":"Bamberg, Deutschland","geometry":{"bounds":{"northeast":{"lat":49.9286322,"lng":10.9607048},"southwest":{"lat":49.84264590000001,"lng":10.8265043}},"location":{"lat":49.8988135,"lng":10.9027636},"location_type":"APPROXIMATE","viewport":{"northeast":{"lat":49.9286322,"lng":10.9607048},"southwest":{"lat":49.84264590000001,"lng":10.8265043}}},"place_id":"ChIJtb7UOAUjokcRgNlh8Ci3HQQ","types":["locality","political"]}],"wiesbaden, germany":[{"address_components":[{"long_name":"Wiesbaden","short_name":"WI","types":["locality","political"]},{"long_name":"Darmstadt","short_name":"DA","types":["administrative_area_level_2","political"]},{"long_name":"Hessen","short_name":"HE","types":["administrative_area_level_1","political"]},{"long_name":"Deutschland","short_name":"DE","types":["country","political"]}],"formatted_address":"Wiesbaden, Deutschland","geometry":{"bounds":{"northeast":{"lat":50.1518053,"lng":8.386192},"southwest":{"lat":49.9931598,"lng":8.110514799999999}},"location":{"lat":50.0782184,"lng":8.239760799999999},"location_type":"APPROXIMATE","viewport":{"northeast":{"lat":50.1518053,"lng":8.386192},"southwest":{"lat":49.9931598,"lng":8.110514799999999}}},"place_id":"ChIJO4RcSdm9vUcRwWYzw4D9EQY","types":["locality","political"]}],"hamburg/germany":[{"address_components":[{"long_name":"Hamburg","short_name":"Hamburg","types":["locality","political"]},{"long_name":"Hamburg","short_name":"HH","types":["administrative_area_level_1","political"]},{"long_name":"Deutschland","short_name":"DE","types":["country","political"]}],"formatted_address":"Hamburg, Deutschland","geometry":{"bounds":{"northeast":{"lat":53.7394338,"lng":10.32528},"southwest":{"lat":53.3962857,"lng":9.7301316}},"location":{"lat":53.5510846,"lng":9.9936818},"location_type":"APPROXIMATE","viewport":{"northeast":{"lat":53.717145,"lng":10.123492},"southwest":{"lat":53.399999,"lng":9.732151000000002}}},"place_id":"ChIJuRMYfoNhsUcRoDrWe_I9JgQ","types":["locality","political"]}],"cologne , germany":[{"address_components":[{"long_name":"Köln","short_name":"Köln","types":["locality","political"]},{"long_name":"Köln","short_name":"K","types":["administrative_area_level_2","political"]},{"long_name":"Nordrhein-Westfalen","short_name":"NRW","types":["administrative_area_level_1","political"]},{"long_name":"Deutschland","short_name":"DE","types":["country","political"]}],"formatted_address":"Köln, Deutschland","geometry":{"bounds":{"northeast":{"lat":51.08496299999999,"lng":7.1620628},"southwest":{"lat":50.8295269,"lng":6.7725819}},"location":{"lat":50.937531,"lng":6.9602786},"location_type":"APPROXIMATE","viewport":{"northeast":{"lat":51.08496299999999,"lng":7.1620628},"southwest":{"lat":50.8295269,"lng":6.7725819}}},"place_id":"ChIJ5S-raZElv0cR8HcqSvxgJwQ","types":["locality","political"]}],"munich, germany":[{"address_components":[{"long_name":"München","short_name":"M","types":["locality","political"]},{"long_name":"Oberbayern","short_name":"Oberbayern","types":["administrative_area_level_2","political"]},{"long_name":"Bayern","short_name":"BY","types":["administrative_area_level_1","political"]},{"long_name":"Deutschland","short_name":"DE","types":["country","political"]}],"formatted_address":"München, Deutschland","geometry":{"bounds":{"northeast":{"lat":48.2482197,"lng":11.7228755},"southwest":{"lat":48.0616018,"lng":11.360796}},"location":{"lat":48.1351253,"lng":11.5819806},"location_type":"APPROXIMATE","viewport":{"northeast":{"lat":48.2482197,"lng":11.7228755},"southwest":{"lat":48.0616018,"lng":11.360796}}},"place_id":"ChIJ2V-Mo_l1nkcRfZixfUq4DAE","types":["locality","political"]}],"luebeck, germany":[{"address_components":[{"long_name":"Lübeck","short_name":"Lübeck","types":["locality","political"]},{"long_name":"Schleswig-Holstein","short_name":"SH","types":["administrative_area_level_1","political"]},{"long_name":"Deutschland","short_name":"DE","types":["country","political"]}],"formatted_address":"Lübeck, Deutschland","geometry":{"bounds":{"northeast":{"lat":53.9939619,"lng":10.9686269},"southwest":{"lat":53.7680394,"lng":10.5541229}},"location":{"lat":53.8654673,"lng":10.6865593},"location_type":"APPROXIMATE","viewport":{"northeast":{"lat":53.9939619,"lng":10.9686269},"southwest":{"lat":53.7680394,"lng":10.5541229}}},"place_id":"ChIJ850L91MJskcRtBJ-PldfcvQ","types":["locality","political"]}],"basel, switzerland / siegburg, germany":[{"address_components":[{"long_name":"Siegburg","short_name":"Siegburg","types":["locality","political"]},{"long_name":"Rhein-Sieg-Kreis","short_name":"Rhein-Sieg-Kreis","types":["administrative_area_level_3","political"]},{"long_name":"Köln","short_name":"K","types":["administrative_area_level_2","political"]},{"long_name":"Nordrhein-Westfalen","short_name":"NRW","types":["administrative_area_level_1","political"]},{"long_name":"Deutschland","short_name":"DE","types":["country","political"]}],"formatted_address":"Siegburg, Deutschland","geometry":{"bounds":{"northeast":{"lat":50.8280251,"lng":7.3045717},"southwest":{"lat":50.7798112,"lng":7.1741947}},"location":{"lat":50.7998473,"lng":7.2074514},"location_type":"APPROXIMATE","viewport":{"northeast":{"lat":50.8280251,"lng":7.3045717},"southwest":{"lat":50.7798112,"lng":7.1741947}}},"partial_match":true,"place_id":"ChIJKYsa023dvkcRsH0qSvxgJwQ","types":["locality","political"]}],"leipzig, germany":[{"address_components":[{"long_name":"Leipzig","short_name":"Leipzig","types":["locality","political"]},{"long_name":"Leipzig","short_name":"Leipzig","types":["administrative_area_level_2","political"]},{"long_name":"Sachsen","short_name":"SN","types":["administrative_area_level_1","political"]},{"long_name":"Deutschland","short_name":"DE","types":["country","political"]}],"formatted_address":"Leipzig, Deutschland","geometry":{"bounds":{"northeast":{"lat":51.448026,"lng":12.5506377},"southwest":{"lat":51.235539,"lng":12.2366321}},"location":{"lat":51.3396955,"lng":12.3730747},"location_type":"APPROXIMATE","viewport":{"northeast":{"lat":51.448026,"lng":12.5506377},"southwest":{"lat":51.235539,"lng":12.2366321}}},"place_id":"ChIJcywPIBj4pkcRUvW0udKA35M","types":["locality","political"]}],"munich / germany":[{"address_components":[{"long_name":"München","short_name":"M","types":["locality","political"]},{"long_name":"Oberbayern","short_name":"Oberbayern","types":["administrative_area_level_2","political"]},{"long_name":"Bayern","short_name":"BY","types":["administrative_area_level_1","political"]},{"long_name":"Deutschland","short_name":"DE","types":["country","political"]}],"formatted_address":"München, Deutschland","geometry":{"bounds":{"northeast":{"lat":48.2482197,"lng":11.7228755},"southwest":{"lat":48.0616018,"lng":11.360796}},"location":{"lat":48.1351253,"lng":11.5819806},"location_type":"APPROXIMATE","viewport":{"northeast":{"lat":48.2482197,"lng":11.7228755},"southwest":{"lat":48.0616018,"lng":11.360796}}},"place_id":"ChIJ2V-Mo_l1nkcRfZixfUq4DAE","types":["locality","political"]}],"dresden, germany":[{"address_components":[{"long_name":"Dresden","short_name":"Dresden","types":["locality","political"]},{"long_name":"Dresden","short_name":"DD","types":["administrative_area_level_2","political"]},{"long_name":"Sachsen","short_name":"SN","types":["administrative_area_level_1","political"]},{"long_name":"Deutschland","short_name":"DE","types":["country","political"]}],"formatted_address":"Dresden, Deutschland","geometry":{"bounds":{"northeast":{"lat":51.17873489999999,"lng":13.9657761},"southwest":{"lat":50.9749326,"lng":13.5793953}},"location":{"lat":51.0504088,"lng":13.7372621},"location_type":"APPROXIMATE","viewport":{"northeast":{"lat":51.17873489999999,"lng":13.9657761},"southwest":{"lat":50.9749326,"lng":13.5793953}}},"place_id":"ChIJqdYaECnPCUcRsP6IQsuxIQQ","types":["locality","political"]}],"freiburg, germany":[{"address_components":[{"long_name":"Freiburg","short_name":"Freiburg","types":["locality","political"]},{"long_name":"Freiburg","short_name":"Freiburg","types":["administrative_area_level_2","political"]},{"long_name":"Baden-Württemberg","short_name":"BW","types":["administrative_area_level_1","political"]},{"long_name":"Deutschland","short_name":"DE","types":["country","political"]}],"formatted_address":"Freiburg, Deutschland","geometry":{"bounds":{"northeast":{"lat":48.0710448,"lng":7.930832299999999},"southwest":{"lat":47.9035775,"lng":7.6620078}},"location":{"lat":47.9990077,"lng":7.842104299999999},"location_type":"APPROXIMATE","viewport":{"northeast":{"lat":48.0710448,"lng":7.930832299999999},"southwest":{"lat":47.9035775,"lng":7.6620078}}},"place_id":"ChIJZdYLViYbkUcRsFffpbdrHwQ","types":["locality","political"]}],"cologne, germany":[{"address_components":[{"long_name":"Köln","short_name":"Köln","types":["locality","political"]},{"long_name":"Köln","short_name":"K","types":["administrative_area_level_2","political"]},{"long_name":"Nordrhein-Westfalen","short_name":"NRW","types":["administrative_area_level_1","political"]},{"long_name":"Deutschland","short_name":"DE","types":["country","political"]}],"formatted_address":"Köln, Deutschland","geometry":{"bounds":{"northeast":{"lat":51.08496299999999,"lng":7.1620628},"southwest":{"lat":50.8295269,"lng":6.7725819}},"location":{"lat":50.937531,"lng":6.9602786},"location_type":"APPROXIMATE","viewport":{"northeast":{"lat":51.08496299999999,"lng":7.1620628},"southwest":{"lat":50.8295269,"lng":6.7725819}}},"place_id":"ChIJ5S-raZElv0cR8HcqSvxgJwQ","types":["locality","political"]}],"bonn / germany":[{"address_components":[{"long_name":"Bonn","short_name":"BN","types":["locality","political"]},{"long_name":"Köln","short_name":"K","types":["administrative_area_level_2","political"]},{"long_name":"Nordrhein-Westfalen","short_name":"NRW","types":["administrative_area_level_1","political"]},{"long_name":"Deutschland","short_name":"DE","types":["country","political"]}],"formatted_address":"Bonn, Deutschland","geometry":{"bounds":{"northeast":{"lat":50.7744264,"lng":7.2107015},"southwest":{"lat":50.6327276,"lng":7.020722999999999}},"location":{"lat":50.73743,"lng":7.0982068},"location_type":"APPROXIMATE","viewport":{"northeast":{"lat":50.7744264,"lng":7.2107015},"southwest":{"lat":50.6327276,"lng":7.020722999999999}}},"place_id":"ChIJSdrLfJ_hvkcRF5ZcaMb424Y","types":["locality","political"]}],"berlin, germany & cambridge, uk":[{"address_components":[{"long_name":"Cambridge","short_name":"Cambridge","types":["locality","political"]},{"long_name":"Cambridge","short_name":"Cambridge","types":["postal_town"]},{"long_name":"Cambridgeshire","short_name":"Cambs","types":["administrative_area_level_2","political"]},{"long_name":"England","short_name":"England","types":["administrative_area_level_1","political"]},{"long_name":"Vereinigtes Königreich","short_name":"GB","types":["country","political"]}],"formatted_address":"Cambridge, Cambridge, Vereinigtes Königreich","geometry":{"bounds":{"northeast":{"lat":52.237855,"lng":0.1919273},"southwest":{"lat":52.1598292,"lng":0.048047}},"location":{"lat":52.205337,"lng":0.121817},"location_type":"APPROXIMATE","viewport":{"northeast":{"lat":52.237855,"lng":0.1919273},"southwest":{"lat":52.1598292,"lng":0.048047}}},"partial_match":true,"place_id":"ChIJLQEq84ld2EcRIT1eo-Ego2M","types":["locality","political"]},{"address_components":[{"long_name":"Cambridge","short_name":"Cambridge","types":["locality","political"]},{"long_name":"Gloucester","short_name":"Gloucester","types":["postal_town"]},{"long_name":"Slimbridge","short_name":"Slimbridge","types":["administrative_area_level_4","political"]},{"long_name":"Stroud","short_name":"Stroud","types":["administrative_area_level_3","political"]},{"long_name":"Gloucestershire","short_name":"Gloucestershire","types":["administrative_area_level_2","political"]},{"long_name":"England","short_name":"England","types":["administrative_area_level_1","political"]},{"long_name":"Vereinigtes Königreich","short_name":"GB","types":["country","political"]},{"long_name":"GL2","short_name":"GL2","types":["postal_code_prefix","postal_code"]}],"formatted_address":"Cambridge, Gloucester, Gloucestershire GL2, Vereinigtes Königreich","geometry":{"location":{"lat":51.73193,"lng":-2.3649},"location_type":"APPROXIMATE","viewport":{"northeast":{"lat":51.73327898029149,"lng":-2.363551019708498},"southwest":{"lat":51.7305810197085,"lng":-2.366248980291502}}},"partial_match":true,"place_id":"ChIJaZFd99CgcUgRQR5DJMvL3rk","types":["locality","political"]}],"passau, germany":[{"address_components":[{"long_name":"Passau","short_name":"PA","types":["locality","political"]},{"long_name":"Niederbayern","short_name":"Niederbayern","types":["administrative_area_level_2","political"]},{"long_name":"Bayern","short_name":"BY","types":["administrative_area_level_1","political"]},{"long_name":"Deutschland","short_name":"DE","types":["country","political"]}],"formatted_address":"Passau, Deutschland","geometry":{"bounds":{"northeast":{"lat":48.6134314,"lng":13.514393},"southwest":{"lat":48.5404502,"lng":13.3023388}},"location":{"lat":48.5667364,"lng":13.4319466},"location_type":"APPROXIMATE","viewport":{"northeast":{"lat":48.6134314,"lng":13.514393},"southwest":{"lat":48.5404502,"lng":13.3023388}}},"place_id":"ChIJZaCgQ3lYdEcRMK83CaQlHQQ","types":["locality","political"]}],"germany, saarland":[{"address_components":[{"long_name":"Saarland","short_name":"SL","types":["administrative_area_level_1","political"]},{"long_name":"Deutschland","short_name":"DE","types":["country","political"]}],"formatted_address":"Saarland, Deutschland","geometry":{"bounds":{"northeast":{"lat":49.6394088,"lng":7.404583799999999},"southwest":{"lat":49.1119452,"lng":6.357608399999999}},"location":{"lat":49.3964234,"lng":7.0229607},"location_type":"APPROXIMATE","viewport":{"northeast":{"lat":49.6394088,"lng":7.404583799999999},"southwest":{"lat":49.1119452,"lng":6.357608399999999}}},"place_id":"ChIJMR-owu-klUcRcHncENXUIgE","types":["administrative_area_level_1","political"]}],"schwielowsee, germany":[{"address_components":[{"long_name":"Schwielowsee","short_name":"Schwielowsee","types":["locality","political"]},{"long_name":"Potsdam-Mittelmark","short_name":"Potsdam-Mittelmark","types":["administrative_area_level_3","political"]},{"long_name":"Brandenburg","short_name":"BB","types":["administrative_area_level_1","political"]},{"long_name":"Deutschland","short_name":"DE","types":["country","political"]}],"formatted_address":"Schwielowsee, Deutschland","geometry":{"bounds":{"northeast":{"lat":52.3929136,"lng":13.0229595},"southwest":{"lat":52.2743529,"lng":12.8520153}},"location":{"lat":52.3053611,"lng":12.9182609},"location_type":"APPROXIMATE","viewport":{"northeast":{"lat":52.3929136,"lng":13.0229595},"southwest":{"lat":52.2743529,"lng":12.8520153}}},"place_id":"ChIJrYqfiayMqEcRUHdeW0YgIQQ","types":["locality","political"]}],"kiel, germany":[{"address_components":[{"long_name":"Kiel","short_name":"KI","types":["locality","political"]},{"long_name":"Schleswig-Holstein","short_name":"SH","types":["administrative_area_level_1","political"]},{"long_name":"Deutschland","short_name":"DE","types":["country","political"]}],"formatted_address":"Kiel, Deutschland","geometry":{"bounds":{"northeast":{"lat":54.4329274,"lng":10.2186004},"southwest":{"lat":54.2506983,"lng":10.0327536}},"location":{"lat":54.3232927,"lng":10.1227652},"location_type":"APPROXIMATE","viewport":{"northeast":{"lat":54.4329274,"lng":10.2186004},"southwest":{"lat":54.2506983,"lng":10.0327536}}},"place_id":"ChIJrZfujw1WskcRIANYxmOJJAQ","types":["locality","political"]}],"stuttgart, germany":[{"address_components":[{"long_name":"Stuttgart","short_name":"Stuttgart","types":["locality","political"]},{"long_name":"Stuttgart","short_name":"Süd","types":["administrative_area_level_2","political"]},{"long_name":"Baden-Württemberg","short_name":"BW","types":["administrative_area_level_1","political"]},{"long_name":"Deutschland","short_name":"DE","types":["country","political"]}],"formatted_address":"Stuttgart, Deutschland","geometry":{"bounds":{"northeast":{"lat":48.86639940000001,"lng":9.3158251},"southwest":{"lat":48.6920187,"lng":9.0386053}},"location":{"lat":48.7758459,"lng":9.1829321},"location_type":"APPROXIMATE","viewport":{"northeast":{"lat":48.86639940000001,"lng":9.3158251},"southwest":{"lat":48.6920187,"lng":9.0386053}}},"place_id":"ChIJ04-twTTbmUcR5M-RdxzB1Xk","types":["locality","political"]}],"karlsruhe, germany":[{"address_components":[{"long_name":"Karlsruhe","short_name":"Karlsruhe","types":["locality","political"]},{"long_name":"Karlsruhe","short_name":"KA","types":["administrative_area_level_2","political"]},{"long_name":"Baden-Württemberg","short_name":"BW","types":["administrative_area_level_1","political"]},{"long_name":"Deutschland","short_name":"DE","types":["country","political"]}],"formatted_address":"Karlsruhe, Deutschland","geometry":{"bounds":{"northeast":{"lat":49.0912684,"lng":8.5416581},"southwest":{"lat":48.9404298,"lng":8.2774096}},"location":{"lat":49.0068901,"lng":8.4036527},"location_type":"APPROXIMATE","viewport":{"northeast":{"lat":49.0912684,"lng":8.5416581},"southwest":{"lat":48.9404298,"lng":8.2774096}}},"place_id":"ChIJCXjgokgGl0cRf-63THNV_LY","types":["locality","political"]}],"germany#frankfurt":[{"address_components":[{"long_name":"Frankfurt","short_name":"Frankfurt","types":["locality","political"]},{"long_name":"Darmstadt","short_name":"DA","types":["administrative_area_level_2","political"]},{"long_name":"Hessen","short_name":"HE","types":["administrative_area_level_1","political"]},{"long_name":"Deutschland","short_name":"DE","types":["country","political"]}],"formatted_address":"Frankfurt, Deutschland","geometry":{"bounds":{"northeast":{"lat":50.2272095,"lng":8.8003977},"southwest":{"lat":50.0152145,"lng":8.4727299}},"location":{"lat":50.1109221,"lng":8.6821267},"location_type":"APPROXIMATE","viewport":{"northeast":{"lat":50.2272095,"lng":8.8003977},"southwest":{"lat":50.0152145,"lng":8.4727299}}},"place_id":"ChIJxZZwR28JvUcRAMawKVBDIgQ","types":["locality","political"]}],"oldenburg (oldenburg), germany":[{"address_components":[{"long_name":"Oldenburg","short_name":"Oldenburg","types":["sublocality_level_1","sublocality","political"]},{"long_name":"Oldenburg in Holstein","short_name":"Oldenburg in Holstein","types":["locality","political"]},{"long_name":"Schleswig-Holstein","short_name":"SH","types":["administrative_area_level_1","political"]},{"long_name":"Deutschland","short_name":"DE","types":["country","political"]},{"long_name":"23758","short_name":"23758","types":["postal_code"]}],"formatted_address":"Oldenburg, 23758 Oldenburg in Holstein, Deutschland","geometry":{"bounds":{"northeast":{"lat":54.30342899999999,"lng":10.9225476},"southwest":{"lat":54.2733067,"lng":10.871425}},"location":{"lat":54.2957397,"lng":10.8919582},"location_type":"APPROXIMATE","viewport":{"northeast":{"lat":54.30342899999999,"lng":10.9225476},"southwest":{"lat":54.2733067,"lng":10.871425}}},"place_id":"ChIJ-VgtdSt-skcRGoEZGYgIuKw","types":["sublocality_level_1","sublocality","political"]}],"offenburg, germany":[{"address_components":[{"long_name":"Offenburg","short_name":"Offenburg","types":["locality","political"]},{"long_name":"Ortenaukreis","short_name":"Ortenaukreis","types":["administrative_area_level_3","political"]},{"long_name":"Freiburg","short_name":"Freiburg","types":["administrative_area_level_2","political"]},{"long_name":"Baden-Württemberg","short_name":"BW","types":["administrative_area_level_1","political"]},{"long_name":"Deutschland","short_name":"DE","types":["country","political"]}],"formatted_address":"Offenburg, Deutschland","geometry":{"bounds":{"northeast":{"lat":48.5526926,"lng":8.0284841},"southwest":{"lat":48.3968244,"lng":7.861641}},"location":{"lat":48.473451,"lng":7.9498017},"location_type":"APPROXIMATE","viewport":{"northeast":{"lat":48.5526926,"lng":8.0284841},"southwest":{"lat":48.3968244,"lng":7.861641}}},"place_id":"ChIJCduT2xHTlkcRsIXfpbdrHwQ","types":["locality","political"]}],"germany, nrw":[{"address_components":[{"long_name":"Nordrhein-Westfalen","short_name":"NRW","types":["administrative_area_level_1","political"]},{"long_name":"Deutschland","short_name":"DE","types":["country","political"]}],"formatted_address":"Nordrhein-Westfalen, Deutschland","geometry":{"bounds":{"northeast":{"lat":52.53146959999999,"lng":9.461634900000002},"southwest":{"lat":50.322701,"lng":5.8663425}},"location":{"lat":51.43323669999999,"lng":7.661593799999999},"location_type":"APPROXIMATE","viewport":{"northeast":{"lat":52.53146959999999,"lng":9.461634900000002},"southwest":{"lat":50.322701,"lng":5.8663425}}},"place_id":"ChIJoUhCjnwWuUcRX4_XT34yTC8","types":["administrative_area_level_1","political"]}],"munich/ germany":[{"address_components":[{"long_name":"München","short_name":"M","types":["locality","political"]},{"long_name":"Oberbayern","short_name":"Oberbayern","types":["administrative_area_level_2","political"]},{"long_name":"Bayern","short_name":"BY","types":["administrative_area_level_1","political"]},{"long_name":"Deutschland","short_name":"DE","types":["country","political"]}],"formatted_address":"München, Deutschland","geometry":{"bounds":{"northeast":{"lat":48.2482197,"lng":11.7228755},"southwest":{"lat":48.0616018,"lng":11.360796}},"location":{"lat":48.1351253,"lng":11.5819806},"location_type":"APPROXIMATE","viewport":{"northeast":{"lat":48.2482197,"lng":11.7228755},"southwest":{"lat":48.0616018,"lng":11.360796}}},"place_id":"ChIJ2V-Mo_l1nkcRfZixfUq4DAE","types":["locality","political"]}],"weiden i.d.opf., germany":[{"address_components":[{"long_name":"Weiden in der Oberpfalz","short_name":"Weiden in der Oberpfalz","types":["locality","political"]},{"long_name":"Oberpfalz","short_name":"Oberpfalz","types":["administrative_area_level_2","political"]},{"long_name":"Bayern","short_name":"BY","types":["administrative_area_level_1","political"]},{"long_name":"Deutschland","short_name":"DE","types":["country","political"]}],"formatted_address":"Weiden in der Oberpfalz, Deutschland","geometry":{"bounds":{"northeast":{"lat":49.7138236,"lng":12.2663832},"southwest":{"lat":49.6143583,"lng":11.9893766}},"location":{"lat":49.6743636,"lng":12.1489337},"location_type":"APPROXIMATE","viewport":{"northeast":{"lat":49.7138236,"lng":12.2663832},"southwest":{"lat":49.6143583,"lng":12.0644234}}},"place_id":"ChIJZQIFfPo4oEcRmwqCXrv8Ws4","types":["locality","political"]}],"germany - cologne":[{"address_components":[{"long_name":"Köln","short_name":"Köln","types":["locality","political"]},{"long_name":"Köln","short_name":"K","types":["administrative_area_level_2","political"]},{"long_name":"Nordrhein-Westfalen","short_name":"NRW","types":["administrative_area_level_1","political"]},{"long_name":"Deutschland","short_name":"DE","types":["country","political"]}],"formatted_address":"Köln, Deutschland","geometry":{"bounds":{"northeast":{"lat":51.08496299999999,"lng":7.1620628},"southwest":{"lat":50.8295269,"lng":6.7725819}},"location":{"lat":50.937531,"lng":6.9602786},"location_type":"APPROXIMATE","viewport":{"northeast":{"lat":51.08496299999999,"lng":7.1620628},"southwest":{"lat":50.8295269,"lng":6.7725819}}},"place_id":"ChIJ5S-raZElv0cR8HcqSvxgJwQ","types":["locality","political"]}],"germany , regensburg":[{"address_components":[{"long_name":"Regensburg","short_name":"Regensburg","types":["locality","political"]},{"long_name":"Regensburg","short_name":"R","types":["administrative_area_level_3","political"]},{"long_name":"Oberpfalz","short_name":"Oberpfalz","types":["administrative_area_level_2","political"]},{"long_name":"Bayern","short_name":"BY","types":["administrative_area_level_1","political"]},{"long_name":"Deutschland","short_name":"DE","types":["country","political"]}],"formatted_address":"Regensburg, Deutschland","geometry":{"bounds":{"northeast":{"lat":49.0764158,"lng":12.1916077},"southwest":{"lat":48.9667457,"lng":12.0290745}},"location":{"lat":49.0134297,"lng":12.1016236},"location_type":"APPROXIMATE","viewport":{"northeast":{"lat":49.0764158,"lng":12.1916077},"southwest":{"lat":48.9667457,"lng":12.0290745}}},"place_id":"ChIJ9y4icpjBn0cREMs3CaQlHQQ","types":["locality","political"]}],"kassel, germany":[{"address_components":[{"long_name":"Kassel","short_name":"Kassel","types":["locality","political"]},{"long_name":"Kassel","short_name":"KS","types":["administrative_area_level_2","political"]},{"long_name":"Hessen","short_name":"HE","types":["administrative_area_level_1","political"]},{"long_name":"Deutschland","short_name":"DE","types":["country","political"]}],"formatted_address":"Kassel, Deutschland","geometry":{"bounds":{"northeast":{"lat":51.36940509999999,"lng":9.5701282},"southwest":{"lat":51.2603671,"lng":9.3511015}},"location":{"lat":51.3127114,"lng":9.4797461},"location_type":"APPROXIMATE","viewport":{"northeast":{"lat":51.36940509999999,"lng":9.5701282},"southwest":{"lat":51.2603671,"lng":9.3511015}}},"place_id":"ChIJHWx6n04_u0cRRxciWD1jhC8","types":["locality","political"]},{"address_components":[{"long_name":"Kassel","short_name":"Kassel","types":["sublocality_level_1","sublocality","political"]},{"long_name":"Biebergemünd","short_name":"Biebergemünd","types":["locality","political"]},{"long_name":"Darmstadt","short_name":"DA","types":["administrative_area_level_2","political"]},{"long_name":"Hessen","short_name":"HE","types":["administrative_area_level_1","political"]},{"long_name":"Deutschland","short_name":"DE","types":["country","political"]},{"long_name":"63599","short_name":"63599","types":["postal_code"]}],"formatted_address":"Kassel, 63599 Biebergemünd, Deutschland","geometry":{"bounds":{"northeast":{"lat":50.2173498,"lng":9.3059744},"southwest":{"lat":50.18299649999999,"lng":9.271353399999999}},"location":{"lat":50.2066898,"lng":9.279060399999999},"location_type":"APPROXIMATE","viewport":{"northeast":{"lat":50.2173498,"lng":9.2864107},"southwest":{"lat":50.2006739,"lng":9.271353399999999}}},"place_id":"ChIJG4zo1CMvvUcRQPWOqlJDIgo","types":["sublocality_level_1","sublocality","political"]}],"mainz, germany":[{"address_components":[{"long_name":"Mainz","short_name":"MZ","types":["locality","political"]},{"long_name":"Rheinland-Pfalz","short_name":"RP","types":["administrative_area_level_1","political"]},{"long_name":"Deutschland","short_name":"DE","types":["country","political"]}],"formatted_address":"Mainz, Deutschland","geometry":{"bounds":{"northeast":{"lat":50.0353212,"lng":8.3430793},"southwest":{"lat":49.8954528,"lng":8.1419819}},"location":{"lat":49.9928617,"lng":8.2472526},"location_type":"APPROXIMATE","viewport":{"northeast":{"lat":50.0353212,"lng":8.3430793},"southwest":{"lat":49.8954528,"lng":8.1419819}}},"place_id":"ChIJeRPfMy6RvUcRoBvbENXUIgQ","types":["locality","political"]}],"brunswick, germany":[{"address_components":[{"long_name":"Braunschweig","short_name":"BS","types":["locality","political"]},{"long_name":"Niedersachsen","short_name":"NDS","types":["administrative_area_level_1","political"]},{"long_name":"Deutschland","short_name":"DE","types":["country","political"]}],"formatted_address":"Braunschweig, Deutschland","geometry":{"bounds":{"northeast":{"lat":52.3575799,"lng":10.6433623},"southwest":{"lat":52.1868049,"lng":10.4124077}},"location":{"lat":52.2688736,"lng":10.5267696},"location_type":"APPROXIMATE","viewport":{"northeast":{"lat":52.3575799,"lng":10.6433623},"southwest":{"lat":52.1868049,"lng":10.4124077}}},"place_id":"ChIJO2YAitX1r0cRsDqslG2sJQQ","types":["locality","political"]}],"frankfurt / germany":[{"address_components":[{"long_name":"Frankfurt","short_name":"Frankfurt","types":["locality","political"]},{"long_name":"Darmstadt","short_name":"DA","types":["administrative_area_level_2","political"]},{"long_name":"Hessen","short_name":"HE","types":["administrative_area_level_1","political"]},{"long_name":"Deutschland","short_name":"DE","types":["country","political"]}],"formatted_address":"Frankfurt, Deutschland","geometry":{"bounds":{"northeast":{"lat":50.2272095,"lng":8.8003977},"southwest":{"lat":50.0152145,"lng":8.4727299}},"location":{"lat":50.1109221,"lng":8.6821267},"location_type":"APPROXIMATE","viewport":{"northeast":{"lat":50.2272095,"lng":8.8003977},"southwest":{"lat":50.0152145,"lng":8.4727299}}},"place_id":"ChIJxZZwR28JvUcRAMawKVBDIgQ","types":["locality","political"]}],"regensburg, germany":[{"address_components":[{"long_name":"Regensburg","short_name":"Regensburg","types":["locality","political"]},{"long_name":"Regensburg","short_name":"R","types":["administrative_area_level_3","political"]},{"long_name":"Oberpfalz","short_name":"Oberpfalz","types":["administrative_area_level_2","political"]},{"long_name":"Bayern","short_name":"BY","types":["administrative_area_level_1","political"]},{"long_name":"Deutschland","short_name":"DE","types":["country","political"]}],"formatted_address":"Regensburg, Deutschland","geometry":{"bounds":{"northeast":{"lat":49.0764158,"lng":12.1916077},"southwest":{"lat":48.9667457,"lng":12.0290745}},"location":{"lat":49.0134297,"lng":12.1016236},"location_type":"APPROXIMATE","viewport":{"northeast":{"lat":49.0764158,"lng":12.1916077},"southwest":{"lat":48.9667457,"lng":12.0290745}}},"place_id":"ChIJ9y4icpjBn0cREMs3CaQlHQQ","types":["locality","political"]}],"munich (germany)":[{"address_components":[{"long_name":"München","short_name":"M","types":["locality","political"]},{"long_name":"Oberbayern","short_name":"Oberbayern","types":["administrative_area_level_2","political"]},{"long_name":"Bayern","short_name":"BY","types":["administrative_area_level_1","political"]},{"long_name":"Deutschland","short_name":"DE","types":["country","political"]}],"formatted_address":"München, Deutschland","geometry":{"bounds":{"northeast":{"lat":48.2482197,"lng":11.7228755},"southwest":{"lat":48.0616018,"lng":11.360796}},"location":{"lat":48.1351253,"lng":11.5819806},"location_type":"APPROXIMATE","viewport":{"northeast":{"lat":48.2482197,"lng":11.7228755},"southwest":{"lat":48.0616018,"lng":11.360796}}},"place_id":"ChIJ2V-Mo_l1nkcRfZixfUq4DAE","types":["locality","political"]}],"heidelberg, germany":[{"address_components":[{"long_name":"Heidelberg","short_name":"Heidelberg","types":["locality","political"]},{"long_name":"Karlsruhe","short_name":"KA","types":["administrative_area_level_2","political"]},{"long_name":"Baden-Württemberg","short_name":"BW","types":["administrative_area_level_1","political"]},{"long_name":"Deutschland","short_name":"DE","types":["country","political"]}],"formatted_address":"Heidelberg, Deutschland","geometry":{"bounds":{"northeast":{"lat":49.4596927,"lng":8.7940495},"southwest":{"lat":49.3517641,"lng":8.573178799999999}},"location":{"lat":49.3987524,"lng":8.6724335},"location_type":"APPROXIMATE","viewport":{"northeast":{"lat":49.4596927,"lng":8.7940495},"southwest":{"lat":49.3517641,"lng":8.573178799999999}}},"place_id":"ChIJzdzMDgXBl0cR1zokRADq5u8","types":["locality","political"]}],"münchen, germany":[{"address_components":[{"long_name":"München","short_name":"M","types":["locality","political"]},{"long_name":"Oberbayern","short_name":"Oberbayern","types":["administrative_area_level_2","political"]},{"long_name":"Bayern","short_name":"BY","types":["administrative_area_level_1","political"]},{"long_name":"Deutschland","short_name":"DE","types":["country","political"]}],"formatted_address":"München, Deutschland","geometry":{"bounds":{"northeast":{"lat":48.2482197,"lng":11.7228755},"southwest":{"lat":48.0616018,"lng":11.360796}},"location":{"lat":48.1351253,"lng":11.5819806},"location_type":"APPROXIMATE","viewport":{"northeast":{"lat":48.2482197,"lng":11.7228755},"southwest":{"lat":48.0616018,"lng":11.360796}}},"place_id":"ChIJ2V-Mo_l1nkcRfZixfUq4DAE","types":["locality","political"]},{"address_components":[{"long_name":"München","short_name":"München","types":["sublocality_level_1","sublocality","political"]},{"long_name":"Hirschbach","short_name":"Hirschbach","types":["locality","political"]},{"long_name":"Oberpfalz","short_name":"Oberpfalz","types":["administrative_area_level_2","political"]},{"long_name":"Bayern","short_name":"BY","types":["administrative_area_level_1","political"]},{"long_name":"Deutschland","short_name":"DE","types":["country","political"]},{"long_name":"92275","short_name":"92275","types":["postal_code"]}],"formatted_address":"München, 92275 Hirschbach, Deutschland","geometry":{"bounds":{"northeast":{"lat":49.5579544,"lng":11.5819357},"southwest":{"lat":49.5549304,"lng":11.5789998}},"location":{"lat":49.5558212,"lng":11.5808788},"location_type":"APPROXIMATE","viewport":{"northeast":{"lat":49.5579544,"lng":11.5819357},"southwest":{"lat":49.5549304,"lng":11.5789998}}},"place_id":"ChIJ_UMNe2PaoUcRYOQJNjXaHgo","types":["sublocality_level_1","sublocality","political"]},{"address_components":[{"long_name":"München","short_name":"München","types":["sublocality_level_1","sublocality","political"]},{"long_name":"Hutthurm","short_name":"Hutthurm","types":["locality","political"]},{"long_name":"Niederbayern","short_name":"Niederbayern","types":["administrative_area_level_2","political"]},{"long_name":"Bayern","short_name":"BY","types":["administrative_area_level_1","political"]},{"long_name":"Deutschland","short_name":"DE","types":["country","political"]},{"long_name":"94116","short_name":"94116","types":["postal_code"]}],"formatted_address":"München, 94116 Hutthurm, Deutschland","geometry":{"bounds":{"northeast":{"lat":48.698772,"lng":13.465833},"southwest":{"lat":48.6954164,"lng":13.4606747}},"location":{"lat":48.6968889,"lng":13.4628725},"location_type":"APPROXIMATE","viewport":{"northeast":{"lat":48.698772,"lng":13.465833},"southwest":{"lat":48.6954164,"lng":13.4606747}}},"place_id":"ChIJu3OTevjwdEcRsMgOdqYlHQo","types":["sublocality_level_1","sublocality","political"]}],"berlin/germany":[{"address_components":[{"long_name":"Berlin","short_name":"Berlin","types":["locality","political"]},{"long_name":"Berlin","short_name":"Berlin","types":["administrative_area_level_1","political"]},{"long_name":"Deutschland","short_name":"DE","types":["country","political"]}],"formatted_address":"Berlin, Deutschland","geometry":{"bounds":{"northeast":{"lat":52.6754542,"lng":13.7611176},"southwest":{"lat":52.33962959999999,"lng":13.0891553}},"location":{"lat":52.52000659999999,"lng":13.404954},"location_type":"APPROXIMATE","viewport":{"northeast":{"lat":52.6754542,"lng":13.7611176},"southwest":{"lat":52.33962959999999,"lng":13.0891553}}},"place_id":"ChIJAVkDPzdOqEcRcDteW0YgIQQ","types":["locality","political"]}],"kamen, germany":[{"address_components":[{"long_name":"Kamen","short_name":"Kamen","types":["locality","political"]},{"long_name":"Unna","short_name":"Unna","types":["administrative_area_level_3","political"]},{"long_name":"Arnsberg","short_name":"Arnsberg","types":["administrative_area_level_2","political"]},{"long_name":"Nordrhein-Westfalen","short_name":"NRW","types":["administrative_area_level_1","political"]},{"long_name":"Deutschland","short_name":"DE","types":["country","political"]}],"formatted_address":"Kamen, Deutschland","geometry":{"bounds":{"northeast":{"lat":51.6149851,"lng":7.7504684},"southwest":{"lat":51.54848819999999,"lng":7.5903234}},"location":{"lat":51.5882752,"lng":7.6590458},"location_type":"APPROXIMATE","viewport":{"northeast":{"lat":51.6149851,"lng":7.7504684},"southwest":{"lat":51.54848819999999,"lng":7.5903234}}},"place_id":"ChIJIR-Dc4USuUcRA68wXfKesMo","types":["locality","political"]}],"duesseldorf, germany":[{"address_components":[{"long_name":"Düsseldorf","short_name":"Düsseldorf","types":["locality","political"]},{"long_name":"Düsseldorf","short_name":"Düsseldorf","types":["administrative_area_level_2","political"]},{"long_name":"Nordrhein-Westfalen","short_name":"NRW","types":["administrative_area_level_1","political"]},{"long_name":"Deutschland","short_name":"DE","types":["country","political"]}],"formatted_address":"Düsseldorf, Deutschland","geometry":{"bounds":{"northeast":{"lat":51.35253429999999,"lng":6.939938799999999},"southwest":{"lat":51.1243752,"lng":6.6887617}},"location":{"lat":51.2277411,"lng":6.7734556},"location_type":"APPROXIMATE","viewport":{"northeast":{"lat":51.35253429999999,"lng":6.939938799999999},"southwest":{"lat":51.1243752,"lng":6.6887617}}},"place_id":"ChIJB1lG8XvJuEcRsHMqSvxgJwQ","types":["locality","political"]}],"erfurt, germany":[{"address_components":[{"long_name":"Erfurt","short_name":"EF","types":["locality","political"]},{"long_name":"Thüringen","short_name":"Thüringen","types":["administrative_area_level_1","political"]},{"long_name":"Deutschland","short_name":"DE","types":["country","political"]}],"formatted_address":"Erfurt, Deutschland","geometry":{"bounds":{"northeast":{"lat":51.0798955,"lng":11.1752701},"southwest":{"lat":50.8907853,"lng":10.8554009}},"location":{"lat":50.98476789999999,"lng":11.0298799},"location_type":"APPROXIMATE","viewport":{"northeast":{"lat":51.0798955,"lng":11.1752701},"southwest":{"lat":50.8907853,"lng":10.8554009}}},"place_id":"ChIJcdZYg4VypEcRADYzdMGOIAQ","types":["locality","political"]}],"erlensee, germany":[{"address_components":[{"long_name":"Erlensee","short_name":"Erlensee","types":["locality","political"]},{"long_name":"Main-Kinzig-Kreis","short_name":"Main-Kinzig-Kreis","types":["administrative_area_level_3","political"]},{"long_name":"Darmstadt","short_name":"DA","types":["administrative_area_level_2","political"]},{"long_name":"Hessen","short_name":"HE","types":["administrative_area_level_1","political"]},{"long_name":"Deutschland","short_name":"DE","types":["country","political"]}],"formatted_address":"Erlensee, Deutschland","geometry":{"bounds":{"northeast":{"lat":50.1886806,"lng":9.0173569},"southwest":{"lat":50.1311664,"lng":8.954356899999999}},"location":{"lat":50.1638866,"lng":8.9840001},"location_type":"APPROXIMATE","viewport":{"northeast":{"lat":50.1886806,"lng":9.0173569},"southwest":{"lat":50.1311664,"lng":8.954356899999999}}},"place_id":"ChIJGVxkJ_EXvUcRsJ2wKVBDIgQ","types":["locality","political"]}],"rastede, germany":[{"address_components":[{"long_name":"Rastede","short_name":"Rastede","types":["locality","political"]},{"long_name":"Ammerland","short_name":"Ammerland","types":["administrative_area_level_3","political"]},{"long_name":"Niedersachsen","short_name":"NDS","types":["administrative_area_level_1","political"]},{"long_name":"Deutschland","short_name":"DE","types":["country","political"]}],"formatted_address":"Rastede, Deutschland","geometry":{"bounds":{"northeast":{"lat":53.3542274,"lng":8.3157141},"southwest":{"lat":53.18892229999999,"lng":8.1052883}},"location":{"lat":53.24454679999999,"lng":8.200536099999999},"location_type":"APPROXIMATE","viewport":{"northeast":{"lat":53.3542274,"lng":8.3157141},"southwest":{"lat":53.18892229999999,"lng":8.1052883}}},"place_id":"ChIJI2swa0_dtkcRsLQAY3fPJgQ","types":["locality","political"]}],"weinstadt germany":[{"address_components":[{"long_name":"Weinstadt","short_name":"Weinstadt","types":["locality","political"]},{"long_name":"Rems-Murr-Kreis","short_name":"Rems-Murr-Kreis","types":["administrative_area_level_3","political"]},{"long_name":"Stuttgart","short_name":"Süd","types":["administrative_area_level_2","political"]},{"long_name":"Baden-Württemberg","short_name":"BW","types":["administrative_area_level_1","political"]},{"long_name":"Deutschland","short_name":"DE","types":["country","political"]}],"formatted_address":"Weinstadt, Deutschland","geometry":{"bounds":{"northeast":{"lat":48.8383688,"lng":9.4381427},"southwest":{"lat":48.7580711,"lng":9.336108}},"location":{"lat":48.8108645,"lng":9.364447499999999},"location_type":"APPROXIMATE","viewport":{"northeast":{"lat":48.8383688,"lng":9.4381427},"southwest":{"lat":48.7580711,"lng":9.336108}}},"place_id":"ChIJmTHpi4zHmUcRUJAJjTz9HwQ","types":["locality","political"]}],"hannover, lower saxony, germany":[{"address_components":[{"long_name":"Hannover","short_name":"Hannover","types":["locality","political"]},{"long_name":"Region Hannover","short_name":"Region Hannover","types":["administrative_area_level_3","political"]},{"long_name":"Niedersachsen","short_name":"NDS","types":["administrative_area_level_1","political"]},{"long_name":"Deutschland","short_name":"DE","types":["country","political"]}],"formatted_address":"Hannover, Deutschland","geometry":{"bounds":{"northeast":{"lat":52.4544218,"lng":9.9185077},"southwest":{"lat":52.304911,"lng":9.6044352}},"location":{"lat":52.3758916,"lng":9.732010400000002},"location_type":"APPROXIMATE","viewport":{"northeast":{"lat":52.4544218,"lng":9.9185077},"southwest":{"lat":52.304911,"lng":9.6044352}}},"place_id":"ChIJhU9JTVELsEcRIEeslG2sJQQ","types":["locality","political"]}],"aachen, germany":[{"address_components":[{"long_name":"Aachen","short_name":"AC","types":["locality","political"]},{"long_name":"Köln","short_name":"K","types":["administrative_area_level_2","political"]},{"long_name":"Nordrhein-Westfalen","short_name":"NRW","types":["administrative_area_level_1","political"]},{"long_name":"Deutschland","short_name":"DE","types":["country","political"]}],"formatted_address":"Aachen, Deutschland","geometry":{"bounds":{"northeast":{"lat":50.8572332,"lng":6.2181501},"southwest":{"lat":50.6621268,"lng":5.974899199999999}},"location":{"lat":50.7753455,"lng":6.083886800000001},"location_type":"APPROXIMATE","viewport":{"northeast":{"lat":50.8572332,"lng":6.2181501},"southwest":{"lat":50.6621268,"lng":5.974899199999999}}},"place_id":"ChIJHRmKsHyZwEcRT0QOC64Oo2M","types":["locality","political"]}],"berlin / germany":[{"address_components":[{"long_name":"Berlin","short_name":"Berlin","types":["locality","political"]},{"long_name":"Berlin","short_name":"Berlin","types":["administrative_area_level_1","political"]},{"long_name":"Deutschland","short_name":"DE","types":["country","political"]}],"formatted_address":"Berlin, Deutschland","geometry":{"bounds":{"northeast":{"lat":52.6754542,"lng":13.7611176},"southwest":{"lat":52.33962959999999,"lng":13.0891553}},"location":{"lat":52.52000659999999,"lng":13.404954},"location_type":"APPROXIMATE","viewport":{"northeast":{"lat":52.6754542,"lng":13.7611176},"southwest":{"lat":52.33962959999999,"lng":13.0891553}}},"place_id":"ChIJAVkDPzdOqEcRcDteW0YgIQQ","types":["locality","political"]}],"saarbruecken, germany":[{"address_components":[{"long_name":"Saarbrücken","short_name":"Saarbrücken","types":["locality","political"]},{"long_name":"Regionalverband Saarbrücken","short_name":"Regionalverband Saarbrücken","types":["administrative_area_level_3","political"]},{"long_name":"Saarland","short_name":"SL","types":["administrative_area_level_1","political"]},{"long_name":"Deutschland","short_name":"DE","types":["country","political"]}],"formatted_address":"Saarbrücken, Deutschland","geometry":{"bounds":{"northeast":{"lat":49.3221392,"lng":7.138042599999999},"southwest":{"lat":49.1721753,"lng":6.8270341}},"location":{"lat":49.24015720000001,"lng":6.996932699999999},"location_type":"APPROXIMATE","viewport":{"northeast":{"lat":49.3221392,"lng":7.138042599999999},"southwest":{"lat":49.1721753,"lng":6.8270341}}},"place_id":"ChIJ68AC41KxlUcRgGvbENXUIgQ","types":["locality","political"]}],"neckartenzlingen, germany":[{"address_components":[{"long_name":"Neckartenzlingen","short_name":"Neckartenzlingen","types":["locality","political"]},{"long_name":"Esslingen","short_name":"Esslingen","types":["administrative_area_level_3","political"]},{"long_name":"Stuttgart","short_name":"Süd","types":["administrative_area_level_2","political"]},{"long_name":"Baden-Württemberg","short_name":"BW","types":["administrative_area_level_1","political"]},{"long_name":"Deutschland","short_name":"DE","types":["country","political"]}],"formatted_address":"Neckartenzlingen, Deutschland","geometry":{"bounds":{"northeast":{"lat":48.6028742,"lng":9.2653982},"southwest":{"lat":48.5663145,"lng":9.207348099999999}},"location":{"lat":48.5888293,"lng":9.243811100000002},"location_type":"APPROXIMATE","viewport":{"northeast":{"lat":48.6028742,"lng":9.2653982},"southwest":{"lat":48.5663145,"lng":9.207348099999999}}},"place_id":"ChIJgVJvnQjsmUcRB7BDrIpYrhQ","types":["locality","political"]}],"braunschweig, germany":[{"address_components":[{"long_name":"Braunschweig","short_name":"BS","types":["locality","political"]},{"long_name":"Niedersachsen","short_name":"NDS","types":["administrative_area_level_1","political"]},{"long_name":"Deutschland","short_name":"DE","types":["country","political"]}],"formatted_address":"Braunschweig, Deutschland","geometry":{"bounds":{"northeast":{"lat":52.3575799,"lng":10.6433623},"southwest":{"lat":52.1868049,"lng":10.4124077}},"location":{"lat":52.2688736,"lng":10.5267696},"location_type":"APPROXIMATE","viewport":{"northeast":{"lat":52.3575799,"lng":10.6433623},"southwest":{"lat":52.1868049,"lng":10.4124077}}},"place_id":"ChIJO2YAitX1r0cRsDqslG2sJQQ","types":["locality","political"]}],"germany, hamburg":[{"address_components":[{"long_name":"Hamburg","short_name":"Hamburg","types":["locality","political"]},{"long_name":"Hamburg","short_name":"HH","types":["administrative_area_level_1","political"]},{"long_name":"Deutschland","short_name":"DE","types":["country","political"]}],"formatted_address":"Hamburg, Deutschland","geometry":{"bounds":{"northeast":{"lat":53.7394338,"lng":10.32528},"southwest":{"lat":53.3962857,"lng":9.7301316}},"location":{"lat":53.5510846,"lng":9.9936818},"location_type":"APPROXIMATE","viewport":{"northeast":{"lat":53.717145,"lng":10.123492},"southwest":{"lat":53.399999,"lng":9.732151000000002}}},"place_id":"ChIJuRMYfoNhsUcRoDrWe_I9JgQ","types":["locality","political"]}],"paderborn, germany":[{"address_components":[{"long_name":"Paderborn","short_name":"Paderborn","types":["locality","political"]},{"long_name":"Paderborn","short_name":"PB","types":["administrative_area_level_3","political"]},{"long_name":"Detmold","short_name":"Detmold","types":["administrative_area_level_2","political"]},{"long_name":"Nordrhein-Westfalen","short_name":"NRW","types":["administrative_area_level_1","political"]},{"long_name":"Deutschland","short_name":"DE","types":["country","political"]}],"formatted_address":"Paderborn, Deutschland","geometry":{"bounds":{"northeast":{"lat":51.8009578,"lng":8.9005637},"southwest":{"lat":51.654255,"lng":8.636301399999999}},"location":{"lat":51.7189205,"lng":8.757509299999999},"location_type":"APPROXIMATE","viewport":{"northeast":{"lat":51.8009578,"lng":8.9005637},"southwest":{"lat":51.654255,"lng":8.636301399999999}}},"place_id":"ChIJ2x1hYZZMukcR7iLvWCqHzHM","types":["locality","political"]}],"steinfurt, germany":[{"address_components":[{"long_name":"Steinfurt","short_name":"Steinfurt","types":["locality","political"]},{"long_name":"Steinfurt","short_name":"ST","types":["administrative_area_level_3","political"]},{"long_name":"Münster","short_name":"Münster","types":["administrative_area_level_2","political"]},{"long_name":"Nordrhein-Westfalen","short_name":"NRW","types":["administrative_area_level_1","political"]},{"long_name":"Deutschland","short_name":"DE","types":["country","political"]}],"formatted_address":"Steinfurt, Deutschland","geometry":{"bounds":{"northeast":{"lat":52.1945613,"lng":7.455575899999999},"southwest":{"lat":52.0811305,"lng":7.260985499999999}},"location":{"lat":52.1445658,"lng":7.333463600000001},"location_type":"APPROXIMATE","viewport":{"northeast":{"lat":52.1945613,"lng":7.455575899999999},"southwest":{"lat":52.0811305,"lng":7.260985499999999}}},"place_id":"ChIJbW-MJYI1uEcR0IFUMYHyJwQ","types":["locality","political"]}],"essen, germany":[{"address_components":[{"long_name":"Essen","short_name":"E","types":["locality","political"]},{"long_name":"Düsseldorf","short_name":"Düsseldorf","types":["administrative_area_level_2","political"]},{"long_name":"Nordrhein-Westfalen","short_name":"NRW","types":["administrative_area_level_1","political"]},{"long_name":"Deutschland","short_name":"DE","types":["country","political"]}],"formatted_address":"Essen, Deutschland","geometry":{"bounds":{"northeast":{"lat":51.53421239999999,"lng":7.1376762},"southwest":{"lat":51.3476021,"lng":6.894360199999999}},"location":{"lat":51.4556432,"lng":7.0115552},"location_type":"APPROXIMATE","viewport":{"northeast":{"lat":51.53421239999999,"lng":7.1376762},"southwest":{"lat":51.3476021,"lng":6.894360199999999}}},"place_id":"ChIJOfarlrfCuEcRnSytpBHhAGo","types":["locality","political"]}],"wesel, germany":[{"address_components":[{"long_name":"Wesel","short_name":"Wesel","types":["locality","political"]},{"long_name":"Wesel","short_name":"Wesel","types":["administrative_area_level_3","political"]},{"long_name":"Düsseldorf","short_name":"Düsseldorf","types":["administrative_area_level_2","political"]},{"long_name":"Nordrhein-Westfalen","short_name":"NRW","types":["administrative_area_level_1","political"]},{"long_name":"Deutschland","short_name":"DE","types":["country","political"]}],"formatted_address":"Wesel, Deutschland","geometry":{"bounds":{"northeast":{"lat":51.7236055,"lng":6.713758299999999},"southwest":{"lat":51.6162565,"lng":6.4603875}},"location":{"lat":51.6643079,"lng":6.6295679},"location_type":"APPROXIMATE","viewport":{"northeast":{"lat":51.7236055,"lng":6.713758299999999},"southwest":{"lat":51.6162565,"lng":6.4603875}}},"place_id":"ChIJCaMM_dSEuEcRsHdUMYHyJwQ","types":["locality","political"]}],"potsdam, germany":[{"address_components":[{"long_name":"Potsdam","short_name":"P","types":["locality","political"]},{"long_name":"Brandenburg","short_name":"BB","types":["administrative_area_level_1","political"]},{"long_name":"Deutschland","short_name":"DE","types":["country","political"]}],"formatted_address":"Potsdam, Deutschland","geometry":{"bounds":{"northeast":{"lat":52.5146915,"lng":13.1679979},"southwest":{"lat":52.3420316,"lng":12.8868267}},"location":{"lat":52.3905689,"lng":13.0644729},"location_type":"APPROXIMATE","viewport":{"northeast":{"lat":52.5146915,"lng":13.1679979},"southwest":{"lat":52.3420316,"lng":12.8868267}}},"place_id":"ChIJt9Y6hM31qEcRm-yqC5j4ZcU","types":["locality","political"]}],"stockholm, sweden / hamburg, germany":[{"address_components":[{"long_name":"Hamburg","short_name":"Hamburg","types":["locality","political"]},{"long_name":"Hamburg","short_name":"HH","types":["administrative_area_level_1","political"]},{"long_name":"Deutschland","short_name":"DE","types":["country","political"]}],"formatted_address":"Hamburg, Deutschland","geometry":{"bounds":{"northeast":{"lat":53.7394338,"lng":10.32528},"southwest":{"lat":53.3962857,"lng":9.7301316}},"location":{"lat":53.5510846,"lng":9.9936818},"location_type":"APPROXIMATE","viewport":{"northeast":{"lat":53.717145,"lng":10.123492},"southwest":{"lat":53.399999,"lng":9.732151000000002}}},"partial_match":true,"place_id":"ChIJuRMYfoNhsUcRoDrWe_I9JgQ","types":["locality","political"]}],"kelkheim, germany":[{"address_components":[{"long_name":"Kelkheim (Taunus)","short_name":"Kelkheim (Taunus)","types":["locality","political"]},{"long_name":"Main-Taunus-Kreis","short_name":"Main-Taunus-Kreis","types":["administrative_area_level_3","political"]},{"long_name":"Darmstadt","short_name":"DA","types":["administrative_area_level_2","political"]},{"long_name":"Hessen","short_name":"HE","types":["administrative_area_level_1","political"]},{"long_name":"Deutschland","short_name":"DE","types":["country","political"]}],"formatted_address":"Kelkheim (Taunus), Deutschland","geometry":{"bounds":{"northeast":{"lat":50.1879895,"lng":8.4866918},"southwest":{"lat":50.1011231,"lng":8.376148299999999}},"location":{"lat":50.13489000000001,"lng":8.45121},"location_type":"APPROXIMATE","viewport":{"northeast":{"lat":50.1879895,"lng":8.4866918},"southwest":{"lat":50.1011231,"lng":8.376148299999999}}},"place_id":"ChIJdaSI9nKkvUcRJkUB4eVz5I4","types":["locality","political"]}],"göttingen, germany":[{"address_components":[{"long_name":"Göttingen","short_name":"Göttingen","types":["locality","political"]},{"long_name":"Göttingen","short_name":"GÖ","types":["administrative_area_level_3","political"]},{"long_name":"Niedersachsen","short_name":"NDS","types":["administrative_area_level_1","political"]},{"long_name":"Deutschland","short_name":"DE","types":["country","political"]}],"formatted_address":"Göttingen, Deutschland","geometry":{"bounds":{"northeast":{"lat":51.590855,"lng":10.0535673},"southwest":{"lat":51.4830199,"lng":9.800138200000001}},"location":{"lat":51.54128040000001,"lng":9.915803499999999},"location_type":"APPROXIMATE","viewport":{"northeast":{"lat":51.590855,"lng":10.0535673},"southwest":{"lat":51.4830199,"lng":9.800138200000001}}},"place_id":"ChIJx8qYb7jUpEcRMD6slG2sJQQ","types":["locality","political"]}],"frankfurt am main, germany":[{"address_components":[{"long_name":"Frankfurt am Main","short_name":"Frankfurt am Main","types":["locality","political"]},{"long_name":"Darmstadt","short_name":"DA","types":["administrative_area_level_2","political"]},{"long_name":"Hessen","short_name":"HE","types":["administrative_area_level_1","political"]},{"long_name":"Deutschland","short_name":"DE","types":["country","political"]}],"formatted_address":"Frankfurt am Main, Deutschland","geometry":{"bounds":{"northeast":{"lat":50.2272095,"lng":8.8003977},"southwest":{"lat":50.0152145,"lng":8.4727299}},"location":{"lat":50.1109221,"lng":8.6821267},"location_type":"APPROXIMATE","viewport":{"northeast":{"lat":50.2272095,"lng":8.8003977},"southwest":{"lat":50.0152145,"lng":8.4727299}}},"place_id":"ChIJxZZwR28JvUcRAMawKVBDIgQ","types":["locality","political"]}],"tübingen, germany":[{"address_components":[{"long_name":"Tübingen","short_name":"Tübingen","types":["locality","political"]},{"long_name":"Tübingen","short_name":"Tübingen","types":["administrative_area_level_3","political"]},{"long_name":"Tübingen","short_name":"TÜ","types":["administrative_area_level_2","political"]},{"long_name":"Baden-Württemberg","short_name":"BW","types":["administrative_area_level_1","political"]},{"long_name":"Deutschland","short_name":"DE","types":["country","political"]}],"formatted_address":"Tübingen, Deutschland","geometry":{"bounds":{"northeast":{"lat":48.5937085,"lng":9.131081600000002},"southwest":{"lat":48.4505798,"lng":8.9644852}},"location":{"lat":48.5216364,"lng":9.0576448},"location_type":"APPROXIMATE","viewport":{"northeast":{"lat":48.5937085,"lng":9.131081600000002},"southwest":{"lat":48.4505798,"lng":8.9644852}}},"place_id":"ChIJgdDN7dT6mUcRjacz_s6uCKw","types":["locality","political"]}],"polling, germany":[{"address_components":[{"long_name":"Polling","short_name":"Polling","types":["locality","political"]},{"long_name":"Weilheim-Schongau","short_name":"Weilheim-Schongau","types":["administrative_area_level_3","political"]},{"long_name":"Oberbayern","short_name":"Oberbayern","types":["administrative_area_level_2","political"]},{"long_name":"Bayern","short_name":"BY","types":["administrative_area_level_1","political"]},{"long_name":"Deutschland","short_name":"DE","types":["country","political"]}],"formatted_address":"Polling, Deutschland","geometry":{"bounds":{"northeast":{"lat":47.8497998,"lng":11.190443},"southwest":{"lat":47.7723244,"lng":11.0625017}},"location":{"lat":47.8102229,"lng":11.1360018},"location_type":"APPROXIMATE","viewport":{"northeast":{"lat":47.8497998,"lng":11.190443},"southwest":{"lat":47.7723244,"lng":11.0625017}}},"place_id":"ChIJ21gEAN20nUcRQK6L161IHgQ","types":["locality","political"]},{"address_components":[{"long_name":"Polling","short_name":"Polling","types":["locality","political"]},{"long_name":"Mühldorf a.Inn","short_name":"MÜ","types":["administrative_area_level_3","political"]},{"long_name":"Oberbayern","short_name":"Oberbayern","types":["administrative_area_level_2","political"]},{"long_name":"Bayern","short_name":"BY","types":["administrative_area_level_1","political"]},{"long_name":"Deutschland","short_name":"DE","types":["country","political"]}],"formatted_address":"Polling, Deutschland","geometry":{"bounds":{"northeast":{"lat":48.2424153,"lng":12.6017968},"southwest":{"lat":48.1579943,"lng":12.4687364}},"location":{"lat":48.2144959,"lng":12.5596426},"location_type":"APPROXIMATE","viewport":{"northeast":{"lat":48.2424153,"lng":12.6017968},"southwest":{"lat":48.1579943,"lng":12.4687364}}},"place_id":"ChIJYblZQZHCdUcRepoev5WYV-A","types":["locality","political"]}],"siegburg, germany":[{"address_components":[{"long_name":"Siegburg","short_name":"Siegburg","types":["locality","political"]},{"long_name":"Rhein-Sieg-Kreis","short_name":"Rhein-Sieg-Kreis","types":["administrative_area_level_3","political"]},{"long_name":"Köln","short_name":"K","types":["administrative_area_level_2","political"]},{"long_name":"Nordrhein-Westfalen","short_name":"NRW","types":["administrative_area_level_1","political"]},{"long_name":"Deutschland","short_name":"DE","types":["country","political"]}],"formatted_address":"Siegburg, Deutschland","geometry":{"bounds":{"northeast":{"lat":50.8280251,"lng":7.3045717},"southwest":{"lat":50.7798112,"lng":7.1741947}},"location":{"lat":50.7998473,"lng":7.2074514},"location_type":"APPROXIMATE","viewport":{"northeast":{"lat":50.8280251,"lng":7.3045717},"southwest":{"lat":50.7798112,"lng":7.1741947}}},"place_id":"ChIJKYsa023dvkcRsH0qSvxgJwQ","types":["locality","political"]}],"d-70565 stuttgart, germany":[{"address_components":[{"long_name":"70565","short_name":"70565","types":["postal_code"]},{"long_name":"Stuttgart","short_name":"Stuttgart","types":["locality","political"]},{"long_name":"Stuttgart","short_name":"Süd","types":["administrative_area_level_2","political"]},{"long_name":"Baden-Württemberg","short_name":"BW","types":["administrative_area_level_1","political"]},{"long_name":"Deutschland","short_name":"DE","types":["country","political"]}],"formatted_address":"70565 Stuttgart, Deutschland","geometry":{"bounds":{"northeast":{"lat":48.730065,"lng":9.1697971},"southwest":{"lat":48.702523,"lng":9.0854541}},"location":{"lat":48.7157428,"lng":9.117814000000001},"location_type":"APPROXIMATE","viewport":{"northeast":{"lat":48.730065,"lng":9.1697971},"southwest":{"lat":48.702523,"lng":9.0854541}}},"partial_match":true,"place_id":"ChIJcceVXxzdmUcRcKOk9T_9Hxw","types":["postal_code"]}],"weiden, germany":[{"address_components":[{"long_name":"Weiden in der Oberpfalz","short_name":"Weiden in der Oberpfalz","types":["locality","political"]},{"long_name":"Oberpfalz","short_name":"Oberpfalz","types":["administrative_area_level_2","political"]},{"long_name":"Bayern","short_name":"BY","types":["administrative_area_level_1","political"]},{"long_name":"Deutschland","short_name":"DE","types":["country","political"]}],"formatted_address":"Weiden in der Oberpfalz, Deutschland","geometry":{"bounds":{"northeast":{"lat":49.7138236,"lng":12.2663832},"southwest":{"lat":49.6143583,"lng":11.9893766}},"location":{"lat":49.6743636,"lng":12.1489337},"location_type":"APPROXIMATE","viewport":{"northeast":{"lat":49.7138236,"lng":12.2663832},"southwest":{"lat":49.6143583,"lng":12.0644234}}},"place_id":"ChIJZQIFfPo4oEcRmwqCXrv8Ws4","types":["locality","political"]}],"erlangen, germany":[{"address_components":[{"long_name":"Erlangen","short_name":"ERH","types":["locality","political"]},{"long_name":"Mittelfranken","short_name":"Mittelfranken","types":["administrative_area_level_2","political"]},{"long_name":"Bayern","short_name":"BY","types":["administrative_area_level_1","political"]},{"long_name":"Deutschland","short_name":"DE","types":["country","political"]}],"formatted_address":"Erlangen, Deutschland","geometry":{"bounds":{"northeast":{"lat":49.6455845,"lng":11.0536043},"southwest":{"lat":49.5327698,"lng":10.9153629}},"location":{"lat":49.5896744,"lng":11.0119611},"location_type":"APPROXIMATE","viewport":{"northeast":{"lat":49.6455845,"lng":11.0536043},"southwest":{"lat":49.5327698,"lng":10.9153629}}},"place_id":"ChIJoTR81cf4oUcR0Me1vjLaHgQ","types":["locality","political"]}],"karlsruhe/germany":[{"address_components":[{"long_name":"Karlsruhe","short_name":"Karlsruhe","types":["locality","political"]},{"long_name":"Karlsruhe","short_name":"KA","types":["administrative_area_level_2","political"]},{"long_name":"Baden-Württemberg","short_name":"BW","types":["administrative_area_level_1","political"]},{"long_name":"Deutschland","short_name":"DE","types":["country","political"]}],"formatted_address":"Karlsruhe, Deutschland","geometry":{"bounds":{"northeast":{"lat":49.0912684,"lng":8.5416581},"southwest":{"lat":48.9404298,"lng":8.2774096}},"location":{"lat":49.0068901,"lng":8.4036527},"location_type":"APPROXIMATE","viewport":{"northeast":{"lat":49.0912684,"lng":8.5416581},"southwest":{"lat":48.9404298,"lng":8.2774096}}},"place_id":"ChIJCXjgokgGl0cRf-63THNV_LY","types":["locality","political"]}],"lake constance, germany":[{"address_components":[{"long_name":"Bodensee","short_name":"Bodensee","types":["natural_feature","establishment"]}],"formatted_address":"Bodensee","geometry":{"bounds":{"northeast":{"lat":47.8174495,"lng":9.753852499999999},"southwest":{"lat":47.4780337,"lng":8.8585624}},"location":{"lat":47.6363377,"lng":9.3892445},"location_type":"APPROXIMATE","viewport":{"northeast":{"lat":47.8174495,"lng":9.753852499999999},"southwest":{"lat":47.4780337,"lng":8.8585624}}},"place_id":"ChIJBQ07-vf7mkcRKxqfnGm-7KY","types":["natural_feature","establishment"]}],"lage, germany":[{"address_components":[{"long_name":"Lage","short_name":"Lage","types":["locality","political"]},{"long_name":"Lippe","short_name":"Lippe","types":["administrative_area_level_3","political"]},{"long_name":"Detmold","short_name":"Detmold","types":["administrative_area_level_2","political"]},{"long_name":"Nordrhein-Westfalen","short_name":"NRW","types":["administrative_area_level_1","political"]},{"long_name":"Deutschland","short_name":"DE","types":["country","political"]}],"formatted_address":"Lage, Deutschland","geometry":{"bounds":{"northeast":{"lat":52.0315762,"lng":8.8773284},"southwest":{"lat":51.92109019999999,"lng":8.7089258}},"location":{"lat":51.9944229,"lng":8.7995372},"location_type":"APPROXIMATE","viewport":{"northeast":{"lat":52.0315762,"lng":8.8773284},"southwest":{"lat":51.92109019999999,"lng":8.7089258}}},"place_id":"ChIJATUKWWxBukcRgIVUMYHyJwQ","types":["locality","political"]}],"europe, germany, stuttgart":[{"address_components":[{"long_name":"Stuttgart","short_name":"Stuttgart","types":["locality","political"]},{"long_name":"Stuttgart","short_name":"Süd","types":["administrative_area_level_2","political"]},{"long_name":"Baden-Württemberg","short_name":"BW","types":["administrative_area_level_1","political"]},{"long_name":"Deutschland","short_name":"DE","types":["country","political"]}],"formatted_address":"Stuttgart, Deutschland","geometry":{"bounds":{"northeast":{"lat":48.86639940000001,"lng":9.3158251},"southwest":{"lat":48.6920187,"lng":9.0386053}},"location":{"lat":48.7758459,"lng":9.1829321},"location_type":"APPROXIMATE","viewport":{"northeast":{"lat":48.86639940000001,"lng":9.3158251},"southwest":{"lat":48.6920187,"lng":9.0386053}}},"place_id":"ChIJ04-twTTbmUcR5M-RdxzB1Xk","types":["locality","political"]}],"hamburg / scharbeutz / germany":[{"address_components":[{"long_name":"Hamburger Ring","short_name":"Hamburger Ring","types":["route"]},{"long_name":"Scharbeutz","short_name":"Scharbeutz","types":["locality","political"]},{"long_name":"Schleswig-Holstein","short_name":"SH","types":["administrative_area_level_1","political"]},{"long_name":"Deutschland","short_name":"DE","types":["country","political"]},{"long_name":"23683","short_name":"23683","types":["postal_code"]}],"formatted_address":"Hamburger Ring, 23683 Scharbeutz, Deutschland","geometry":{"bounds":{"northeast":{"lat":54.0315732,"lng":10.7615677},"southwest":{"lat":54.02032519999999,"lng":10.746997}},"location":{"lat":54.0269665,"lng":10.7478977},"location_type":"GEOMETRIC_CENTER","viewport":{"northeast":{"lat":54.0315732,"lng":10.7615677},"southwest":{"lat":54.02032519999999,"lng":10.746997}}},"partial_match":true,"place_id":"ChIJ9-6yPRF0skcRzz9xcmIbgjw","types":["route"]},{"address_components":[{"long_name":"Scharbeutzer Straße","short_name":"Scharbeutzer Str.","types":["route"]},{"long_name":"Wandsbek","short_name":"Wandsbek","types":["sublocality_level_1","sublocality","political"]},{"long_name":"Hamburg","short_name":"Hamburg","types":["locality","political"]},{"long_name":"Hamburg","short_name":"HH","types":["administrative_area_level_1","political"]},{"long_name":"Deutschland","short_name":"DE","types":["country","political"]}],"formatted_address":"Scharbeutzer Str., Hamburg, Deutschland","geometry":{"bounds":{"northeast":{"lat":53.60092,"lng":10.1519418},"southwest":{"lat":53.59932,"lng":10.1300444}},"location":{"lat":53.6002969,"lng":10.1409759},"location_type":"GEOMETRIC_CENTER","viewport":{"northeast":{"lat":53.6014689802915,"lng":10.1519418},"southwest":{"lat":53.5987710197085,"lng":10.1300444}}},"partial_match":true,"place_id":"ChIJTy1GCwiLsUcR8UVypg98ZoU","types":["route"]},{"address_components":[{"long_name":"Ferienwohnung Scharbeutz","short_name":"Ferienwohnung Scharbeutz","types":["point_of_interest","establishment"]},{"long_name":"82","short_name":"82","types":["street_number"]},{"long_name":"Sinstorfer Weg","short_name":"Sinstorfer Weg","types":["route"]},{"long_name":"Sinstorf","short_name":"Sinstorf","types":["sublocality_level_2","sublocality","political"]},{"long_name":"Harburg","short_name":"Harburg","types":["sublocality_level_1","sublocality","political"]},{"long_name":"Hamburg","short_name":"Hamburg","types":["locality","political"]},{"long_name":"Hamburg","short_name":"HH","types":["administrative_area_level_1","political"]},{"long_name":"Deutschland","short_name":"DE","types":["country","political"]},{"long_name":"21077","short_name":"21077","types":["postal_code"]}],"formatted_address":"Ferienwohnung Scharbeutz, Sinstorfer Weg 82, 21077 Hamburg, Deutschland","geometry":{"location":{"lat":54.0274107,"lng":10.7545531},"location_type":"APPROXIMATE","viewport":{"northeast":{"lat":54.02875968029149,"lng":10.7559020802915},"southwest":{"lat":54.02606171970849,"lng":10.7532041197085}}},"partial_match":true,"place_id":"ChIJwaQ_MjyRsUcRfQMm5egwEvc","types":["fire_station","point_of_interest","establishment"]}],"munich - germany":[{"address_components":[{"long_name":"München","short_name":"M","types":["locality","political"]},{"long_name":"Oberbayern","short_name":"Oberbayern","types":["administrative_area_level_2","political"]},{"long_name":"Bayern","short_name":"BY","types":["administrative_area_level_1","political"]},{"long_name":"Deutschland","short_name":"DE","types":["country","political"]}],"formatted_address":"München, Deutschland","geometry":{"bounds":{"northeast":{"lat":48.2482197,"lng":11.7228755},"southwest":{"lat":48.0616018,"lng":11.360796}},"location":{"lat":48.1351253,"lng":11.5819806},"location_type":"APPROXIMATE","viewport":{"northeast":{"lat":48.2482197,"lng":11.7228755},"southwest":{"lat":48.0616018,"lng":11.360796}}},"place_id":"ChIJ2V-Mo_l1nkcRfZixfUq4DAE","types":["locality","political"]}],"berlin - germany":[{"address_components":[{"long_name":"Berlin","short_name":"Berlin","types":["locality","political"]},{"long_name":"Berlin","short_name":"Berlin","types":["administrative_area_level_1","political"]},{"long_name":"Deutschland","short_name":"DE","types":["country","political"]}],"formatted_address":"Berlin, Deutschland","geometry":{"bounds":{"northeast":{"lat":52.6754542,"lng":13.7611176},"southwest":{"lat":52.33962959999999,"lng":13.0891553}},"location":{"lat":52.52000659999999,"lng":13.404954},"location_type":"APPROXIMATE","viewport":{"northeast":{"lat":52.6754542,"lng":13.7611176},"southwest":{"lat":52.33962959999999,"lng":13.0891553}}},"place_id":"ChIJAVkDPzdOqEcRcDteW0YgIQQ","types":["locality","political"]}],"meppen, germany":[{"address_components":[{"long_name":"Meppen","short_name":"Meppen","types":["locality","political"]},{"long_name":"Emsland","short_name":"Emsland","types":["administrative_area_level_3","political"]},{"long_name":"Niedersachsen","short_name":"NDS","types":["administrative_area_level_1","political"]},{"long_name":"Deutschland","short_name":"DE","types":["country","political"]}],"formatted_address":"Meppen, Deutschland","geometry":{"bounds":{"northeast":{"lat":52.77436429999999,"lng":7.443261999999999},"southwest":{"lat":52.6224257,"lng":7.1347484}},"location":{"lat":52.69534789999999,"lng":7.299400700000001},"location_type":"APPROXIMATE","viewport":{"northeast":{"lat":52.77436429999999,"lng":7.443261999999999},"southwest":{"lat":52.6224257,"lng":7.1347484}}},"place_id":"ChIJYT6hG1aQt0cRc-5xGFK1hZA","types":["locality","political"]}],"lüneburg, germany":[{"address_components":[{"long_name":"Lüneburg","short_name":"Lüneburg","types":["locality","political"]},{"long_name":"Lüneburg","short_name":"LG","types":["administrative_area_level_3","political"]},{"long_name":"Niedersachsen","short_name":"NDS","types":["administrative_area_level_1","political"]},{"long_name":"Deutschland","short_name":"DE","types":["country","political"]}],"formatted_address":"Lüneburg, Deutschland","geometry":{"bounds":{"northeast":{"lat":53.2864592,"lng":10.5143468},"southwest":{"lat":53.1916485,"lng":10.3309314}},"location":{"lat":53.2464214,"lng":10.4115179},"location_type":"APPROXIMATE","viewport":{"northeast":{"lat":53.2864592,"lng":10.5143468},"southwest":{"lat":53.1916485,"lng":10.3309314}}},"place_id":"ChIJW6SejMXdsUcRw_701MwGAMY","types":["locality","political"]}],"babenhausen, germany":[{"address_components":[{"long_name":"Babenhausen","short_name":"Babenhausen","types":["locality","political"]},{"long_name":"Darmstadt-Dieburg","short_name":"Darmstadt-Dieburg","types":["administrative_area_level_3","political"]},{"long_name":"Darmstadt","short_name":"DA","types":["administrative_area_level_2","political"]},{"long_name":"Hessen","short_name":"HE","types":["administrative_area_level_1","political"]},{"long_name":"Deutschland","short_name":"DE","types":["country","political"]}],"formatted_address":"Babenhausen, Deutschland","geometry":{"bounds":{"northeast":{"lat":50.001943,"lng":9.026714},"southwest":{"lat":49.91067229999999,"lng":8.8650142}},"location":{"lat":49.9593613,"lng":8.9588974},"location_type":"APPROXIMATE","viewport":{"northeast":{"lat":50.001943,"lng":9.026714},"southwest":{"lat":49.91067229999999,"lng":8.8650142}}},"place_id":"ChIJ8fvVLS1AvUcRBmXfJ0nMrog","types":["locality","political"]}],"germany (swedish expat)":[],"cottbus, germany":[{"address_components":[{"long_name":"Cottbus","short_name":"CB","types":["locality","political"]},{"long_name":"Brandenburg","short_name":"BB","types":["administrative_area_level_1","political"]},{"long_name":"Deutschland","short_name":"DE","types":["country","political"]}],"formatted_address":"Cottbus, Deutschland","geometry":{"bounds":{"northeast":{"lat":51.8640522,"lng":14.5013163},"southwest":{"lat":51.69245790000001,"lng":14.2732904}},"location":{"lat":51.75631079999999,"lng":14.3328679},"location_type":"APPROXIMATE","viewport":{"northeast":{"lat":51.8640522,"lng":14.5013163},"southwest":{"lat":51.69245790000001,"lng":14.2732904}}},"place_id":"ChIJX0qVWUJ0CEcROq1_4LUv1FA","types":["locality","political"]}],"munich/germany":[{"address_components":[{"long_name":"München","short_name":"M","types":["locality","political"]},{"long_name":"Oberbayern","short_name":"Oberbayern","types":["administrative_area_level_2","political"]},{"long_name":"Bayern","short_name":"BY","types":["administrative_area_level_1","political"]},{"long_name":"Deutschland","short_name":"DE","types":["country","political"]}],"formatted_address":"München, Deutschland","geometry":{"bounds":{"northeast":{"lat":48.2482197,"lng":11.7228755},"southwest":{"lat":48.0616018,"lng":11.360796}},"location":{"lat":48.1351253,"lng":11.5819806},"location_type":"APPROXIMATE","viewport":{"northeast":{"lat":48.2482197,"lng":11.7228755},"southwest":{"lat":48.0616018,"lng":11.360796}}},"place_id":"ChIJ2V-Mo_l1nkcRfZixfUq4DAE","types":["locality","political"]}],"morsbach, germany":[{"address_components":[{"long_name":"Morsbach","short_name":"Morsbach","types":["locality","political"]},{"long_name":"Oberbergischer Kreis","short_name":"Oberbergischer Kreis","types":["administrative_area_level_3","political"]},{"long_name":"Köln","short_name":"K","types":["administrative_area_level_2","political"]},{"long_name":"Nordrhein-Westfalen","short_name":"NRW","types":["administrative_area_level_1","political"]},{"long_name":"Deutschland","short_name":"DE","types":["country","political"]}],"formatted_address":"Morsbach, Deutschland","geometry":{"bounds":{"northeast":{"lat":50.917253,"lng":7.766451200000001},"southwest":{"lat":50.81858800000001,"lng":7.645856199999999}},"location":{"lat":50.8665594,"lng":7.7267267},"location_type":"APPROXIMATE","viewport":{"northeast":{"lat":50.917253,"lng":7.766451200000001},"southwest":{"lat":50.81858800000001,"lng":7.645856199999999}}},"place_id":"ChIJ_0xl2cykvkcRp7wwsQ4yQj0","types":["locality","political"]},{"address_components":[{"long_name":"Mörsbach","short_name":"Mörsbach","types":["locality","political"]},{"long_name":"Westerwaldkreis","short_name":"Westerwaldkreis","types":["administrative_area_level_3","political"]},{"long_name":"Rheinland-Pfalz","short_name":"RP","types":["administrative_area_level_1","political"]},{"long_name":"Deutschland","short_name":"DE","types":["country","political"]}],"formatted_address":"Mörsbach, Deutschland","geometry":{"bounds":{"northeast":{"lat":50.7401172,"lng":7.793843900000001},"southwest":{"lat":50.7120423,"lng":7.738185899999999}},"location":{"lat":50.7241866,"lng":7.7782855},"location_type":"APPROXIMATE","viewport":{"northeast":{"lat":50.7401172,"lng":7.793843900000001},"southwest":{"lat":50.7120423,"lng":7.738185899999999}}},"place_id":"ChIJR33elcOYvkcRoBPbENXUIgQ","types":["locality","political"]},{"address_components":[{"long_name":"Mörsbach","short_name":"Mörsbach","types":["sublocality_level_1","sublocality","political"]},{"long_name":"Zweibrücken","short_name":"ZW","types":["locality","political"]},{"long_name":"Rheinland-Pfalz","short_name":"RP","types":["administrative_area_level_1","political"]},{"long_name":"Deutschland","short_name":"DE","types":["country","political"]},{"long_name":"66482","short_name":"66482","types":["postal_code"]}],"formatted_address":"Mörsbach, 66482 Zweibrücken, Deutschland","geometry":{"bounds":{"northeast":{"lat":49.3071795,"lng":7.406472999999999},"southwest":{"lat":49.297961,"lng":7.390644}},"location":{"lat":49.3026762,"lng":7.4003841},"location_type":"APPROXIMATE","viewport":{"northeast":{"lat":49.3071795,"lng":7.406472999999999},"southwest":{"lat":49.297961,"lng":7.390644}}},"place_id":"ChIJRe46NhvalUcRlwbbSO1_6TE","types":["sublocality_level_1","sublocality","political"]}],"germany - mönchengladbach":[{"address_components":[{"long_name":"Mönchengladbach","short_name":"MG","types":["locality","political"]},{"long_name":"Düsseldorf","short_name":"Düsseldorf","types":["administrative_area_level_2","political"]},{"long_name":"Nordrhein-Westfalen","short_name":"NRW","types":["administrative_area_level_1","political"]},{"long_name":"Deutschland","short_name":"DE","types":["country","political"]}],"formatted_address":"Mönchengladbach, Deutschland","geometry":{"bounds":{"northeast":{"lat":51.2478799,"lng":6.5365343},"southwest":{"lat":51.0833095,"lng":6.2910923}},"location":{"lat":51.1804572,"lng":6.4428041},"location_type":"APPROXIMATE","viewport":{"northeast":{"lat":51.2478799,"lng":6.5365343},"southwest":{"lat":51.0833095,"lng":6.2910923}}},"place_id":"ChIJaWRATJisuEcRUMi_x4rNRVQ","types":["locality","political"]}],"munich, germany / st.petersburg, russia":[{"address_components":[{"long_name":"Sankt Petersburg","short_name":"СПБ","types":["locality","political"]},{"long_name":"gorod Sankt-Peterburg","short_name":"g. Sankt-Peterburg","types":["administrative_area_level_2","political"]},{"long_name":"Sankt Petersburg","short_name":"St. Petersburg","types":["administrative_area_level_1","political"]},{"long_name":"Russland","short_name":"RU","types":["country","political"]}],"formatted_address":"St. Petersburg, Russland","geometry":{"bounds":{"northeast":{"lat":60.089675,"lng":30.559783},"southwest":{"lat":59.74521590000001,"lng":30.090332}},"location":{"lat":59.9342802,"lng":30.3350986},"location_type":"APPROXIMATE","viewport":{"northeast":{"lat":60.089675,"lng":30.559783},"southwest":{"lat":59.74521590000001,"lng":30.090332}}},"partial_match":true,"place_id":"ChIJ7WVKx4w3lkYR_46Eqz9nx20","types":["locality","political"]}],"emden, germany":[{"address_components":[{"long_name":"Emden","short_name":"EMD","types":["locality","political"]},{"long_name":"Niedersachsen","short_name":"NDS","types":["administrative_area_level_1","political"]},{"long_name":"Deutschland","short_name":"DE","types":["country","political"]}],"formatted_address":"Emden, Deutschland","geometry":{"bounds":{"northeast":{"lat":53.4085169,"lng":7.311350299999999},"southwest":{"lat":53.3203344,"lng":6.9993579}},"location":{"lat":53.35940290000001,"lng":7.2060095},"location_type":"APPROXIMATE","viewport":{"northeast":{"lat":53.4085169,"lng":7.311350299999999},"southwest":{"lat":53.3203344,"lng":6.9993579}}},"place_id":"ChIJqeayi8A5tkcRP5GtdGXEjlI","types":["locality","political"]}],"gomaringen, germany":[{"address_components":[{"long_name":"Gomaringen","short_name":"Gomaringen","types":["locality","political"]},{"long_name":"Tübingen","short_name":"Tübingen","types":["administrative_area_level_3","political"]},{"long_name":"Tübingen","short_name":"TÜ","types":["administrative_area_level_2","political"]},{"long_name":"Baden-Württemberg","short_name":"BW","types":["administrative_area_level_1","political"]},{"long_name":"Deutschland","short_name":"DE","types":["country","political"]}],"formatted_address":"Gomaringen, Deutschland","geometry":{"bounds":{"northeast":{"lat":48.483255,"lng":9.139483199999999},"southwest":{"lat":48.4266087,"lng":9.0651601}},"location":{"lat":48.4548955,"lng":9.096424299999999},"location_type":"APPROXIMATE","viewport":{"northeast":{"lat":48.483255,"lng":9.139483199999999},"southwest":{"lat":48.4266087,"lng":9.0651601}}},"place_id":"ChIJuTXYZ7nwmUcRCsLnWSGAVWE","types":["locality","political"]}],"schwabmünchen, germany":[{"address_components":[{"long_name":"Schwabmünchen","short_name":"Schwabmünchen","types":["locality","political"]},{"long_name":"Augsburg","short_name":"A","types":["administrative_area_level_3","political"]},{"long_name":"Schwaben","short_name":"Schwaben","types":["administrative_area_level_2","political"]},{"long_name":"Bayern","short_name":"BY","types":["administrative_area_level_1","political"]},{"long_name":"Deutschland","short_name":"DE","types":["country","political"]}],"formatted_address":"Schwabmünchen, Deutschland","geometry":{"bounds":{"northeast":{"lat":48.2300714,"lng":10.8028338},"southwest":{"lat":48.1596568,"lng":10.661576}},"location":{"lat":48.1800343,"lng":10.7557069},"location_type":"APPROXIMATE","viewport":{"northeast":{"lat":48.2300714,"lng":10.8028338},"southwest":{"lat":48.1596568,"lng":10.661576}}},"place_id":"ChIJ6yb7ut8dnEcRoOuL161IHgQ","types":["locality","political"]}],"baden-württemberg, germany":[{"address_components":[{"long_name":"Baden-Württemberg","short_name":"BW","types":["administrative_area_level_1","political"]},{"long_name":"Deutschland","short_name":"DE","types":["country","political"]}],"formatted_address":"Baden-Württemberg, Deutschland","geometry":{"bounds":{"northeast":{"lat":49.7913278,"lng":10.495573},"southwest":{"lat":47.5323664,"lng":7.511756799999999}},"location":{"lat":48.6616037,"lng":9.3501336},"location_type":"APPROXIMATE","viewport":{"northeast":{"lat":49.7913278,"lng":10.495573},"southwest":{"lat":47.5323664,"lng":7.511756799999999}}},"place_id":"ChIJ3wZkgmIbkUcRYEgkDb9IjMY","types":["administrative_area_level_1","political"]}],"dresden / germany":[{"address_components":[{"long_name":"Dresden","short_name":"Dresden","types":["locality","political"]},{"long_name":"Dresden","short_name":"DD","types":["administrative_area_level_2","political"]},{"long_name":"Sachsen","short_name":"SN","types":["administrative_area_level_1","political"]},{"long_name":"Deutschland","short_name":"DE","types":["country","political"]}],"formatted_address":"Dresden, Deutschland","geometry":{"bounds":{"northeast":{"lat":51.17873489999999,"lng":13.9657761},"southwest":{"lat":50.9749326,"lng":13.5793953}},"location":{"lat":51.0504088,"lng":13.7372621},"location_type":"APPROXIMATE","viewport":{"northeast":{"lat":51.17873489999999,"lng":13.9657761},"southwest":{"lat":50.9749326,"lng":13.5793953}}},"place_id":"ChIJqdYaECnPCUcRsP6IQsuxIQQ","types":["locality","political"]}],"reutlingen, germany":[{"address_components":[{"long_name":"Reutlingen","short_name":"RT","types":["locality","political"]},{"long_name":"Reutlingen","short_name":"RT","types":["administrative_area_level_3","political"]},{"long_name":"Tübingen","short_name":"TÜ","types":["administrative_area_level_2","political"]},{"long_name":"Baden-Württemberg","short_name":"BW","types":["administrative_area_level_1","political"]},{"long_name":"Deutschland","short_name":"DE","types":["country","political"]}],"formatted_address":"Reutlingen, Deutschland","geometry":{"bounds":{"northeast":{"lat":48.5786104,"lng":9.2555938},"southwest":{"lat":48.4126753,"lng":9.1148739}},"location":{"lat":48.50693889999999,"lng":9.2038043},"location_type":"APPROXIMATE","viewport":{"northeast":{"lat":48.5786104,"lng":9.2555938},"southwest":{"lat":48.4126753,"lng":9.1148739}}},"place_id":"ChIJ65TICvPxmUcRMHrfpbdrHwQ","types":["locality","political"]}],"minden, germany":[{"address_components":[{"long_name":"Minden","short_name":"Minden","types":["locality","political"]},{"long_name":"Minden-Lübbecke","short_name":"Minden-Lübbecke","types":["administrative_area_level_3","political"]},{"long_name":"Detmold","short_name":"Detmold","types":["administrative_area_level_2","political"]},{"long_name":"Nordrhein-Westfalen","short_name":"NRW","types":["administrative_area_level_1","political"]},{"long_name":"Deutschland","short_name":"DE","types":["country","political"]}],"formatted_address":"Minden, Deutschland","geometry":{"bounds":{"northeast":{"lat":52.3648672,"lng":8.998317499999999},"southwest":{"lat":52.2471292,"lng":8.7920188}},"location":{"lat":52.2964919,"lng":8.894920599999999},"location_type":"APPROXIMATE","viewport":{"northeast":{"lat":52.3648672,"lng":8.998317499999999},"southwest":{"lat":52.2471292,"lng":8.7920188}}},"place_id":"ChIJs3Xg-gR0ukcRVQlchEGM8NA","types":["locality","political"]}],"quinson, france and berlin, germany":[{"address_components":[{"long_name":"Berlin","short_name":"Berlin","types":["locality","political"]},{"long_name":"Berlin","short_name":"Berlin","types":["administrative_area_level_1","political"]},{"long_name":"Deutschland","short_name":"DE","types":["country","political"]}],"formatted_address":"Berlin, Deutschland","geometry":{"bounds":{"northeast":{"lat":52.6754542,"lng":13.7611176},"southwest":{"lat":52.33962959999999,"lng":13.0891553}},"location":{"lat":52.52000659999999,"lng":13.404954},"location_type":"APPROXIMATE","viewport":{"northeast":{"lat":52.6754542,"lng":13.7611176},"southwest":{"lat":52.33962959999999,"lng":13.0891553}}},"partial_match":true,"place_id":"ChIJAVkDPzdOqEcRcDteW0YgIQQ","types":["locality","political"]}],"witten, germany":[{"address_components":[{"long_name":"Witten","short_name":"Witten","types":["locality","political"]},{"long_name":"Ennepe-Ruhr-Kreis","short_name":"Ennepe-Ruhr-Kreis","types":["administrative_area_level_3","political"]},{"long_name":"Arnsberg","short_name":"Arnsberg","types":["administrative_area_level_2","political"]},{"long_name":"Nordrhein-Westfalen","short_name":"NRW","types":["administrative_area_level_1","political"]},{"long_name":"Deutschland","short_name":"DE","types":["country","political"]}],"formatted_address":"Witten, Deutschland","geometry":{"bounds":{"northeast":{"lat":51.4843421,"lng":7.4228195},"southwest":{"lat":51.3700596,"lng":7.2460956}},"location":{"lat":51.4438926,"lng":7.353197000000001},"location_type":"APPROXIMATE","viewport":{"northeast":{"lat":51.4843421,"lng":7.4228195},"southwest":{"lat":51.3700596,"lng":7.2460956}}},"place_id":"ChIJswAH8IkhuUcREIhUMYHyJwQ","types":["locality","political"]},{"address_components":[{"long_name":"Witten","short_name":"Witten","types":["sublocality_level_1","sublocality","political"]},{"long_name":"Wetter (Ruhr)","short_name":"Wetter (Ruhr)","types":["locality","political"]},{"long_name":"Arnsberg","short_name":"Arnsberg","types":["administrative_area_level_2","political"]},{"long_name":"Nordrhein-Westfalen","short_name":"NRW","types":["administrative_area_level_1","political"]},{"long_name":"Deutschland","short_name":"DE","types":["country","political"]}],"formatted_address":"Witten, Wetter (Ruhr), Deutschland","geometry":{"bounds":{"northeast":{"lat":51.4085617,"lng":7.3399419},"southwest":{"lat":51.4070776,"lng":7.336814299999999}},"location":{"lat":51.40796049999999,"lng":7.338387300000001},"location_type":"APPROXIMATE","viewport":{"northeast":{"lat":51.4091686302915,"lng":7.3399419},"southwest":{"lat":51.4064706697085,"lng":7.336814299999999}}},"place_id":"ChIJ97Euk9MjuUcR4BynILQ-KQk","types":["sublocality_level_1","sublocality","political"]}],"mainz / germany":[{"address_components":[{"long_name":"Mainz","short_name":"MZ","types":["locality","political"]},{"long_name":"Rheinland-Pfalz","short_name":"RP","types":["administrative_area_level_1","political"]},{"long_name":"Deutschland","short_name":"DE","types":["country","political"]}],"formatted_address":"Mainz, Deutschland","geometry":{"bounds":{"northeast":{"lat":50.0353212,"lng":8.3430793},"southwest":{"lat":49.8954528,"lng":8.1419819}},"location":{"lat":49.9928617,"lng":8.2472526},"location_type":"APPROXIMATE","viewport":{"northeast":{"lat":50.0353212,"lng":8.3430793},"southwest":{"lat":49.8954528,"lng":8.1419819}}},"place_id":"ChIJeRPfMy6RvUcRoBvbENXUIgQ","types":["locality","political"]}],"darmstadt, germany":[{"address_components":[{"long_name":"Darmstadt","short_name":"Darmstadt","types":["locality","political"]},{"long_name":"Darmstadt","short_name":"DA","types":["administrative_area_level_2","political"]},{"long_name":"Hessen","short_name":"HE","types":["administrative_area_level_1","political"]},{"long_name":"Deutschland","short_name":"DE","types":["country","political"]}],"formatted_address":"Darmstadt, Deutschland","geometry":{"bounds":{"northeast":{"lat":49.9538799,"lng":8.7497188},"southwest":{"lat":49.7956409,"lng":8.5599238}},"location":{"lat":49.8728253,"lng":8.6511929},"location_type":"APPROXIMATE","viewport":{"northeast":{"lat":49.9538799,"lng":8.7497188},"southwest":{"lat":49.7956409,"lng":8.5599238}}},"place_id":"ChIJ2c1zEWRwvUcR8MWwKVBDIgQ","types":["locality","political"]}],"germany / bavaria / munich":[{"address_components":[{"long_name":"München","short_name":"M","types":["locality","political"]},{"long_name":"Oberbayern","short_name":"Oberbayern","types":["administrative_area_level_2","political"]},{"long_name":"Bayern","short_name":"BY","types":["administrative_area_level_1","political"]},{"long_name":"Deutschland","short_name":"DE","types":["country","political"]}],"formatted_address":"München, Deutschland","geometry":{"bounds":{"northeast":{"lat":48.2482197,"lng":11.7228755},"southwest":{"lat":48.0616018,"lng":11.360796}},"location":{"lat":48.1351253,"lng":11.5819806},"location_type":"APPROXIMATE","viewport":{"northeast":{"lat":48.2482197,"lng":11.7228755},"southwest":{"lat":48.0616018,"lng":11.360796}}},"place_id":"ChIJ2V-Mo_l1nkcRfZixfUq4DAE","types":["locality","political"]}],"berlin/cologne, germany":[{"address_components":[{"long_name":"Air Berlin","short_name":"Air Berlin","types":["subpremise"]},{"long_name":"Porz","short_name":"Porz","types":["sublocality_level_1","sublocality","political"]},{"long_name":"Köln","short_name":"Köln","types":["locality","political"]},{"long_name":"Köln","short_name":"K","types":["administrative_area_level_2","political"]},{"long_name":"Nordrhein-Westfalen","short_name":"NRW","types":["administrative_area_level_1","political"]},{"long_name":"Deutschland","short_name":"DE","types":["country","political"]},{"long_name":"51147","short_name":"51147","types":["postal_code"]}],"formatted_address":"Air Berlin, 51147 Köln, Deutschland","geometry":{"location":{"lat":50.8802397,"lng":7.1195633},"location_type":"ROOFTOP","viewport":{"northeast":{"lat":50.8815886802915,"lng":7.120912280291503},"southwest":{"lat":50.8788907197085,"lng":7.118214319708499}}},"partial_match":true,"place_id":"ChIJQUv-Z8vYvkcRzrhzNtwypqA","types":["subpremise"]}],"solingen, germany":[{"address_components":[{"long_name":"Solingen","short_name":"SG","types":["locality","political"]},{"long_name":"Düsseldorf","short_name":"Düsseldorf","types":["administrative_area_level_2","political"]},{"long_name":"Nordrhein-Westfalen","short_name":"NRW","types":["administrative_area_level_1","political"]},{"long_name":"Deutschland","short_name":"DE","types":["country","political"]}],"formatted_address":"Solingen, Deutschland","geometry":{"bounds":{"northeast":{"lat":51.220372,"lng":7.174114799999999},"southwest":{"lat":51.1141984,"lng":6.951112900000001}},"location":{"lat":51.17020720000001,"lng":7.0831408},"location_type":"APPROXIMATE","viewport":{"northeast":{"lat":51.220372,"lng":7.174114799999999},"southwest":{"lat":51.1141984,"lng":6.951112900000001}}},