{"districts":[{"district":"Comunidad Valenciana","details":{"results":[{"address_components":[{"long_name":"Comunidad Valenciana","short_name":"Comunidad Valenciana","types":["administrative_area_level_1","political"]},{"long_name":"España","short_name":"ES","types":["country","political"]}],"formatted_address":"Comunidad Valenciana, España","geometry":{"bounds":{"northeast":{"lat":40.7886312,"lng":0.6912275999999999},"southwest":{"lat":37.8438987,"lng":-1.5289447}},"location":{"lat":39.4840108,"lng":-0.7532808999999999},"location_type":"APPROXIMATE","viewport":{"northeast":{"lat":40.7886312,"lng":0.6912275999999999},"southwest":{"lat":37.8438987,"lng":-1.5289447}}},"place_id":"ChIJDTGOzUD8XQ0RXQsxGLjLQF8","types":["administrative_area_level_1","political"]}],"status":"OK"}},{"district":"Aragón","details":{"results":[{"address_components":[{"long_name":"Aragón","short_name":"Aragón","types":["administrative_area_level_1","political"]},{"long_name":"España","short_name":"ES","types":["country","political"]}],"formatted_address":"Aragón, España","geometry":{"bounds":{"northeast":{"lat":42.9244952,"lng":0.7713066},"southwest":{"lat":39.846778,"lng":-2.1736712}},"location":{"lat":41.5976275,"lng":-0.9056623},"location_type":"APPROXIMATE","viewport":{"northeast":{"lat":42.9244952,"lng":0.7713066},"southwest":{"lat":39.846778,"lng":-2.1736712}}},"place_id":"ChIJ-W5lP-4UWQ0RWP14-ZVCICA","types":["administrative_area_level_1","political"]}],"status":"OK"}},{"district":"Comunidad de Madrid","details":{"results":[{"address_components":[{"long_name":"Comunidad de Madrid","short_name":"Comunidad de Madrid","types":["administrative_area_level_1","political"]},{"long_name":"España","short_name":"ES","types":["country","political"]}],"formatted_address":"Comunidad de Madrid, España","geometry":{"bounds":{"northeast":{"lat":41.16584470000001,"lng":-3.0529833},"southwest":{"lat":39.8847195,"lng":-4.579076}},"location":{"lat":40.4167515,"lng":-3.7038322},"location_type":"APPROXIMATE","viewport":{"northeast":{"lat":41.16584470000001,"lng":-3.0529833},"southwest":{"lat":39.8847195,"lng":-4.579076}}},"place_id":"ChIJuTPgQHqBQQ0RgMhLvvNAAwE","types":["administrative_area_level_1","political"]}],"status":"OK"}},{"district":"BARCELONA","details":{"results":[{"address_components":[{"long_name":"Aeropuerto de Barcelona-El Prat","short_name":"Aeropuerto de Barcelona-El Prat","types":["point_of_interest","establishment"]},{"long_name":"El Prat de Llobregat","short_name":"El Prat de Llobregat","types":["locality","political"]},{"long_name":"Barcelona","short_name":"B","types":["administrative_area_level_2","political"]},{"long_name":"Cataluña","short_name":"CT","types":["administrative_area_level_1","political"]},{"long_name":"España","short_name":"ES","types":["country","political"]},{"long_name":"08820","short_name":"08820","types":["postal_code"]}],"formatted_address":"Aeropuerto de Barcelona-El Prat (BCN), 08820 El Prat de Llobregat, Barcelona, España","geometry":{"location":{"lat":41.297445,"lng":2.0832941},"location_type":"APPROXIMATE","viewport":{"northeast":{"lat":41.29879398029151,"lng":2.084643080291502},"southwest":{"lat":41.29609601970851,"lng":2.081945119708498}}},"place_id":"ChIJpY58hGSepBIR15tv-0LpK_M","types":["airport","point_of_interest","establishment"]},{"address_components":[{"long_name":"Barcelona","short_name":"Barcelona","types":["locality","political"]},{"long_name":"Barcelona","short_name":"Barcelona","types":["administrative_area_level_4","political"]},{"long_name":"El Barcelonès","short_name":"El Barcelonès","types":["administrative_area_level_3","political"]},{"long_name":"Barcelona","short_name":"B","types":["administrative_area_level_2","political"]},{"long_name":"Cataluña","short_name":"CT","types":["administrative_area_level_1","political"]},{"long_name":"España","short_name":"ES","types":["country","political"]}],"formatted_address":"Barcelona, Barcelona, España","geometry":{"bounds":{"northeast":{"lat":41.4695761,"lng":2.2280099},"southwest":{"lat":41.320004,"lng":2.0695258}},"location":{"lat":41.3850639,"lng":2.1734035},"location_type":"APPROXIMATE","viewport":{"northeast":{"lat":41.4695761,"lng":2.2280099},"southwest":{"lat":41.320004,"lng":2.0695258}}},"place_id":"ChIJ5TCOcRaYpBIRCmZHTz37sEQ","types":["locality","political"]}],"status":"OK"}},{"district":"Cantabria","details":{"results":[{"address_components":[{"long_name":"Cantabria","short_name":"Cantabria","types":["administrative_area_level_1","political"]},{"long_name":"España","short_name":"ES","types":["country","political"]}],"formatted_address":"Cantabria, España","geometry":{"bounds":{"northeast":{"lat":43.5136929,"lng":-3.149652},"southwest":{"lat":42.75804979999999,"lng":-4.8517782}},"location":{"lat":43.1828396,"lng":-3.9878427},"location_type":"APPROXIMATE","viewport":{"northeast":{"lat":43.5136929,"lng":-3.149652},"southwest":{"lat":42.75804979999999,"lng":-4.8517782}}},"place_id":"ChIJy78OCdsgSQ0R0MjJc4L1BAE","types":["administrative_area_level_1","political"]}],"status":"OK"}},{"district":"La Rioja","details":{"results":[{"address_components":[{"long_name":"La Rioja","short_name":"La Rioja","types":["administrative_area_level_1","political"]},{"long_name":"España","short_name":"ES","types":["country","political"]}],"formatted_address":"La Rioja, España","geometry":{"bounds":{"northeast":{"lat":42.6442647,"lng":-1.6787014},"southwest":{"lat":41.9190339,"lng":-3.1342713}},"location":{"lat":42.2870733,"lng":-2.539603},"location_type":"APPROXIMATE","viewport":{"northeast":{"lat":42.6442647,"lng":-1.6787014},"southwest":{"lat":41.9190339,"lng":-3.1342713}}},"place_id":"ChIJu9z3TpJLRQ0Rjimbpl76f3g","types":["administrative_area_level_1","political"]}],"status":"OK"}},{"district":"Región de Murcia","details":{"results":[{"address_components":[{"long_name":"Región de Murcia","short_name":"Región de Murcia","types":["administrative_area_level_1","political"]},{"long_name":"España","short_name":"ES","types":["country","political"]}],"formatted_address":"Región de Murcia, España","geometry":{"bounds":{"northeast":{"lat":38.7550852,"lng":-0.6479828999999999},"southwest":{"lat":37.3737526,"lng":-2.3444114}},"location":{"lat":38.1398141,"lng":-1.366216},"location_type":"APPROXIMATE","viewport":{"northeast":{"lat":38.7550852,"lng":-0.6479828999999999},"southwest":{"lat":37.3737526,"lng":-2.3444114}}},"place_id":"ChIJza6U13waYw0RIthUR_UzzhQ","types":["administrative_area_level_1","political"]}],"status":"OK"}},{"district":"Sevilla","details":{"results":[{"address_components":[{"long_name":"Aeropuerto Sevilla","short_name":"Aeropuerto Sevilla","types":["point_of_interest","establishment"]},{"long_name":"Km. 532","short_name":"Km. 532","types":["street_number"]},{"long_name":"A-4","short_name":"A-4","types":["route"]},{"long_name":"Sevilla","short_name":"Sevilla","types":["locality","political"]},{"long_name":"Sevilla","short_name":"Sevilla","types":["administrative_area_level_2","political"]},{"long_name":"Sevilla","short_name":"Sevilla","types":["administrative_area_level_1","political"]},{"long_name":"España","short_name":"ES","types":["country","political"]},{"long_name":"41020","short_name":"41020","types":["postal_code"]}],"formatted_address":"Aeropuerto Sevilla (SVQ), A-4, Km. 532, 41020 Sevilla, Sevilla, España","geometry":{"location":{"lat":37.4201674,"lng":-5.89305},"location_type":"APPROXIMATE","viewport":{"northeast":{"lat":37.42151638029149,"lng":-5.891701019708497},"southwest":{"lat":37.4188184197085,"lng":-5.894398980291502}}},"place_id":"ChIJuZuEjRxmEg0ROif7oHd-UgE","types":["airport","point_of_interest","establishment"]},{"address_components":[{"long_name":"Sevilla","short_name":"Sevilla","types":["locality","political"]},{"long_name":"Sevilla","short_name":"Sevilla","types":["administrative_area_level_4","political"]},{"long_name":"Área Metropolitana de Sevilla","short_name":"Área Metropolitana de Sevilla","types":["administrative_area_level_3","political"]},{"long_name":"Sevilla","short_name":"Sevilla","types":["administrative_area_level_2","political"]},{"long_name":"Andalucía","short_name":"AL","types":["administrative_area_level_1","political"]},{"long_name":"España","short_name":"ES","types":["country","political"]}],"formatted_address":"Sevilla, Sevilla, España","geometry":{"bounds":{"northeast":{"lat":37.4355212,"lng":-5.8884587},"southwest":{"lat":37.3152203,"lng":-6.0216578}},"location":{"lat":37.3890924,"lng":-5.9844589},"location_type":"APPROXIMATE","viewport":{"northeast":{"lat":37.4355212,"lng":-5.8884587},"southwest":{"lat":37.3152203,"lng":-6.0216578}}},"place_id":"ChIJkWK-FBFsEg0RSFb-HGIY8DQ","types":["locality","political"]}],"status":"OK"}},{"district":"Navarra","details":{"results":[{"address_components":[{"long_name":"Navarra","short_name":"Navarra","types":["administrative_area_level_1","political"]},{"long_name":"España","short_name":"ES","types":["country","political"]}],"formatted_address":"Navarra, España","geometry":{"bounds":{"northeast":{"lat":43.314792,"lng":-0.7239504},"southwest":{"lat":41.9098937,"lng":-2.5000827}},"location":{"lat":42.6953909,"lng":-1.6760691},"location_type":"APPROXIMATE","viewport":{"northeast":{"lat":43.314792,"lng":-0.7239504},"southwest":{"lat":41.9098937,"lng":-2.5000827}}},"place_id":"ChIJhVbJl_eSUA0RDop817cZqx0","types":["administrative_area_level_1","political"]}],"status":"OK"}},{"district":"Principado de Asturias","details":{"results":[{"address_components":[{"long_name":"Principado de Asturias","short_name":"Principado de Asturias","types":["administrative_area_level_1","political"]},{"long_name":"España","short_name":"ES","types":["country","political"]}],"formatted_address":"Principado de Asturias, España","geometry":{"bounds":{"northeast":{"lat":43.6665323,"lng":-4.5105944},"southwest":{"lat":42.8825428,"lng":-7.1824889}},"location":{"lat":43.3613953,"lng":-5.8593267},"location_type":"APPROXIMATE","viewport":{"northeast":{"lat":43.6665323,"lng":-4.5105944},"southwest":{"lat":42.8825428,"lng":-7.1824889}}},"place_id":"ChIJnbCeYPqMNg0ROp7GfSvztfg","types":["administrative_area_level_1","political"]}],"status":"OK"}},{"district":"Tarragona","details":{"results":[{"address_components":[{"long_name":"Tarragona","short_name":"Tarragona","types":["locality","political"]},{"long_name":"Tarragona","short_name":"Tarragona","types":["administrative_area_level_4","political"]},{"long_name":"El Tarragonès","short_name":"El Tarragonès","types":["administrative_area_level_3","political"]},{"long_name":"Tarragona","short_name":"T","types":["administrative_area_level_2","political"]},{"long_name":"Cataluña","short_name":"CT","types":["administrative_area_level_1","political"]},{"long_name":"España","short_name":"ES","types":["country","political"]}],"formatted_address":"Tarragona, Tarragona, España","geometry":{"bounds":{"northeast":{"lat":41.1419484,"lng":1.2898309},"southwest":{"lat":41.1096612,"lng":1.1873165}},"location":{"lat":41.1188827,"lng":1.2444909},"location_type":"APPROXIMATE","viewport":{"northeast":{"lat":41.1419484,"lng":1.2898309},"southwest":{"lat":41.1096612,"lng":1.1873165}}},"place_id":"ChIJWfHd09v8oxIRsqOHE6dpBZI","types":["locality","political"]}],"status":"OK"}}]}