{"sevilla, spain":[{"address_components":[{"long_name":"Aeropuerto Sevilla","short_name":"Aeropuerto Sevilla","types":["point_of_interest","establishment"]},{"long_name":"Km. 532","short_name":"Km. 532","types":["street_number"]},{"long_name":"A-4","short_name":"A-4","types":["route"]},{"long_name":"Sevilla","short_name":"Sevilla","types":["locality","political"]},{"long_name":"Sevilla","short_name":"Sevilla","types":["administrative_area_level_2","political"]},{"long_name":"Sevilla","short_name":"Sevilla","types":["administrative_area_level_1","political"]},{"long_name":"España","short_name":"ES","types":["country","political"]},{"long_name":"41020","short_name":"41020","types":["postal_code"]}],"formatted_address":"Aeropuerto Sevilla (SVQ), A-4, Km. 532, 41020 Sevilla, Sevilla, España","geometry":{"location":{"lat":37.4201674,"lng":-5.89305},"location_type":"APPROXIMATE","viewport":{"northeast":{"lat":37.42151638029149,"lng":-5.891701019708497},"southwest":{"lat":37.4188184197085,"lng":-5.894398980291502}}},"place_id":"ChIJuZuEjRxmEg0ROif7oHd-UgE","types":["airport","point_of_interest","establishment"]},{"address_components":[{"long_name":"Sevilla","short_name":"Sevilla","types":["locality","political"]},{"long_name":"Sevilla","short_name":"Sevilla","types":["administrative_area_level_4","political"]},{"long_name":"Área Metropolitana de Sevilla","short_name":"Área Metropolitana de Sevilla","types":["administrative_area_level_3","political"]},{"long_name":"Sevilla","short_name":"Sevilla","types":["administrative_area_level_2","political"]},{"long_name":"Andalucía","short_name":"AL","types":["administrative_area_level_1","political"]},{"long_name":"España","short_name":"ES","types":["country","political"]}],"formatted_address":"Sevilla, Sevilla, España","geometry":{"bounds":{"northeast":{"lat":37.4355212,"lng":-5.8884587},"southwest":{"lat":37.3152203,"lng":-6.0216578}},"location":{"lat":37.3890924,"lng":-5.9844589},"location_type":"APPROXIMATE","viewport":{"northeast":{"lat":37.4355212,"lng":-5.8884587},"southwest":{"lat":37.3152203,"lng":-6.0216578}}},"place_id":"ChIJkWK-FBFsEg0RSFb-HGIY8DQ","types":["locality","political"]}],"barcelona, spain":[{"address_components":[{"long_name":"Aeropuerto de Barcelona-El Prat","short_name":"Aeropuerto de Barcelona-El Prat","types":["point_of_interest","establishment"]},{"long_name":"El Prat de Llobregat","short_name":"El Prat de Llobregat","types":["locality","political"]},{"long_name":"Barcelona","short_name":"B","types":["administrative_area_level_2","political"]},{"long_name":"Cataluña","short_name":"CT","types":["administrative_area_level_1","political"]},{"long_name":"España","short_name":"ES","types":["country","political"]},{"long_name":"08820","short_name":"08820","types":["postal_code"]}],"formatted_address":"Aeropuerto de Barcelona-El Prat (BCN), 08820 El Prat de Llobregat, Barcelona, España","geometry":{"location":{"lat":41.297445,"lng":2.0832941},"location_type":"APPROXIMATE","viewport":{"northeast":{"lat":41.29879398029151,"lng":2.084643080291502},"southwest":{"lat":41.29609601970851,"lng":2.081945119708498}}},"place_id":"ChIJpY58hGSepBIR15tv-0LpK_M","types":["airport","point_of_interest","establishment"]},{"address_components":[{"long_name":"Barcelona","short_name":"Barcelona","types":["locality","political"]},{"long_name":"Barcelona","short_name":"Barcelona","types":["administrative_area_level_4","political"]},{"long_name":"El Barcelonès","short_name":"El Barcelonès","types":["administrative_area_level_3","political"]},{"long_name":"Barcelona","short_name":"B","types":["administrative_area_level_2","political"]},{"long_name":"Cataluña","short_name":"CT","types":["administrative_area_level_1","political"]},{"long_name":"España","short_name":"ES","types":["country","political"]}],"formatted_address":"Barcelona, Barcelona, España","geometry":{"bounds":{"northeast":{"lat":41.4695761,"lng":2.2280099},"southwest":{"lat":41.320004,"lng":2.0695258}},"location":{"lat":41.3850639,"lng":2.1734035},"location_type":"APPROXIMATE","viewport":{"northeast":{"lat":41.4695761,"lng":2.2280099},"southwest":{"lat":41.320004,"lng":2.0695258}}},"place_id":"ChIJ5TCOcRaYpBIRCmZHTz37sEQ","types":["locality","political"]}],"reus, spain":[{"address_components":[{"long_name":"Reus","short_name":"Reus","types":["locality","political"]},{"long_name":"Reus","short_name":"Reus","types":["administrative_area_level_4","political"]},{"long_name":"El Baix Camp","short_name":"El Baix Camp","types":["administrative_area_level_3","political"]},{"long_name":"Tarragona","short_name":"T","types":["administrative_area_level_2","political"]},{"long_name":"Cataluña","short_name":"CT","types":["administrative_area_level_1","political"]},{"long_name":"España","short_name":"ES","types":["country","political"]}],"formatted_address":"Reus, Tarragona, España","geometry":{"bounds":{"northeast":{"lat":41.1702234,"lng":1.1326869},"southwest":{"lat":41.1307043,"lng":1.0816493}},"location":{"lat":41.1498259,"lng":1.1055321},"location_type":"APPROXIMATE","viewport":{"northeast":{"lat":41.1702234,"lng":1.1326869},"southwest":{"lat":41.1307043,"lng":1.0816493}}},"place_id":"ChIJXZ5tuORQoRIR0s7eSdKQIS4","types":["locality","political"]}],"spain":[{"address_components":[{"long_name":"España","short_name":"ES","types":["country","political"]}],"formatted_address":"España","geometry":{"bounds":{"northeast":{"lat":43.7923495,"lng":4.3277839},"southwest":{"lat":27.6378936,"lng":-18.160788}},"location":{"lat":40.46366700000001,"lng":-3.74922},"location_type":"APPROXIMATE","viewport":{"northeast":{"lat":45.244,"lng":5.098},"southwest":{"lat":35.17300000000001,"lng":-12.524}}},"place_id":"ChIJi7xhMnjjQgwR7KNoB5Qs7KY","types":["country","political"]}],"seville (spain)":[{"address_components":[{"long_name":"Sevilla","short_name":"Sevilla","types":["locality","political"]},{"long_name":"Sevilla","short_name":"Sevilla","types":["administrative_area_level_4","political"]},{"long_name":"Área Metropolitana de Sevilla","short_name":"Área Metropolitana de Sevilla","types":["administrative_area_level_3","political"]},{"long_name":"Sevilla","short_name":"Sevilla","types":["administrative_area_level_2","political"]},{"long_name":"Andalucía","short_name":"AL","types":["administrative_area_level_1","political"]},{"long_name":"España","short_name":"ES","types":["country","political"]}],"formatted_address":"Sevilla, Sevilla, España","geometry":{"bounds":{"northeast":{"lat":37.4355212,"lng":-5.8884587},"southwest":{"lat":37.3152203,"lng":-6.0216578}},"location":{"lat":37.3890924,"lng":-5.9844589},"location_type":"APPROXIMATE","viewport":{"northeast":{"lat":37.4355212,"lng":-5.8884587},"southwest":{"lat":37.3152203,"lng":-6.0216578}}},"place_id":"ChIJkWK-FBFsEg0RSFb-HGIY8DQ","types":["locality","political"]}],"granada, spain, europe":[{"address_components":[{"long_name":"Granada","short_name":"Granada","types":["locality","political"]},{"long_name":"Granada","short_name":"Granada","types":["administrative_area_level_4","political"]},{"long_name":"Vega de Granada","short_name":"Vega de Granada","types":["administrative_area_level_3","political"]},{"long_name":"Granada","short_name":"Granada","types":["administrative_area_level_2","political"]},{"long_name":"Andalucía","short_name":"AL","types":["administrative_area_level_1","political"]},{"long_name":"España","short_name":"ES","types":["country","political"]}],"formatted_address":"Granada, Granada, España","geometry":{"bounds":{"northeast":{"lat":37.2124648,"lng":-3.5505714},"southwest":{"lat":37.1494277,"lng":-3.6338351}},"location":{"lat":37.1773363,"lng":-3.5985571},"location_type":"APPROXIMATE","viewport":{"northeast":{"lat":37.2124648,"lng":-3.5505714},"southwest":{"lat":37.1494277,"lng":-3.6338351}}},"place_id":"ChIJfcIyLeb8cQ0Rcg1g0533WJI","types":["locality","political"]}],"las palmas de gran canaria, spain":[{"address_components":[{"long_name":"Las Palmas de Gran Canaria","short_name":"Las Palmas de Gran Canaria","types":["locality","political"]},{"long_name":"Las Palmas de Gran Canaria","short_name":"Las Palmas de Gran Canaria","types":["administrative_area_level_4","political"]},{"long_name":"Las Palmas de Gran Canaria - Cuenca del Guiniguada","short_name":"Las Palmas de Gran Canaria - Cuenca del Guiniguada","types":["administrative_area_level_3","political"]},{"long_name":"Las Palmas","short_name":"Las Palmas","types":["administrative_area_level_2","political"]},{"long_name":"Canarias","short_name":"CN","types":["administrative_area_level_1","political"]},{"long_name":"España","short_name":"ES","types":["country","political"]}],"formatted_address":"Las Palmas de Gran Canaria, Las Palmas, España","geometry":{"bounds":{"northeast":{"lat":28.1563403,"lng":-15.4117481},"southwest":{"lat":28.0783812,"lng":-15.467486}},"location":{"lat":28.1235459,"lng":-15.4362574},"location_type":"APPROXIMATE","viewport":{"northeast":{"lat":28.1563403,"lng":-15.4117481},"southwest":{"lat":28.0783812,"lng":-15.467486}}},"place_id":"ChIJ0ZfAkQ6VQAwRZbo4U6y1Nqs","types":["locality","political"]}],"santander (spain)":[{"address_components":[{"long_name":"Santander","short_name":"Santander","types":["locality","political"]},{"long_name":"Santander","short_name":"Santander","types":["administrative_area_level_4","political"]},{"long_name":"Santander","short_name":"Santander","types":["administrative_area_level_3","political"]},{"long_name":"Cantabria","short_name":"S","types":["administrative_area_level_2","political"]},{"long_name":"Cantabria","short_name":"Cantabria","types":["administrative_area_level_1","political"]},{"long_name":"España","short_name":"ES","types":["country","political"]}],"formatted_address":"Santander, Cantabria, España","geometry":{"bounds":{"northeast":{"lat":43.4863908,"lng":-3.7536109},"southwest":{"lat":43.436298,"lng":-3.8686632}},"location":{"lat":43.46230569999999,"lng":-3.8099803},"location_type":"APPROXIMATE","viewport":{"northeast":{"lat":43.4863908,"lng":-3.7536109},"southwest":{"lat":43.436298,"lng":-3.8686632}}},"place_id":"ChIJce5riq5JSQ0RlrqCFoDcfNI","types":["locality","political"]}],"madrid, spain":[{"address_components":[{"long_name":"Madrid","short_name":"Madrid","types":["locality","political"]},{"long_name":"Madrid","short_name":"Madrid","types":["administrative_area_level_4","political"]},{"long_name":"Área Metropolitalitana y Corredor del Henares","short_name":"Área Metropolitalitana y Corredor del Henares","types":["administrative_area_level_3","political"]},{"long_name":"Madrid","short_name":"M","types":["administrative_area_level_2","political"]},{"long_name":"Comunidad de Madrid","short_name":"Comunidad de Madrid","types":["administrative_area_level_1","political"]},{"long_name":"España","short_name":"ES","types":["country","political"]}],"formatted_address":"Madrid, Madrid, España","geometry":{"bounds":{"northeast":{"lat":40.5638447,"lng":-3.5249115},"southwest":{"lat":40.3120639,"lng":-3.8341618}},"location":{"lat":40.4167754,"lng":-3.7037902},"location_type":"APPROXIMATE","viewport":{"northeast":{"lat":40.5638447,"lng":-3.5249115},"southwest":{"lat":40.3120639,"lng":-3.8341618}}},"place_id":"ChIJgTwKgJcpQg0RaSKMYcHeNsQ","types":["locality","political"]},{"address_components":[{"long_name":"Madrid","short_name":"Madrid","types":["locality","political"]},{"long_name":"Rucandio","short_name":"Rucandio","types":["administrative_area_level_4","political"]},{"long_name":"La Bureba","short_name":"La Bureba","types":["administrative_area_level_3","political"]},{"long_name":"Burgos","short_name":"Burgos","types":["administrative_area_level_2","political"]},{"long_name":"Castilla y León","short_name":"CL","types":["administrative_area_level_1","political"]},{"long_name":"España","short_name":"ES","types":["country","political"]},{"long_name":"09593","short_name":"09593","types":["postal_code"]}],"formatted_address":"09593 Madrid, Burgos, España","geometry":{"bounds":{"northeast":{"lat":42.77213210000001,"lng":-3.538175},"southwest":{"lat":42.7694126,"lng":-3.5414953}},"location":{"lat":42.7705252,"lng":-3.5404748},"location_type":"APPROXIMATE","viewport":{"northeast":{"lat":42.77213210000001,"lng":-3.538175},"southwest":{"lat":42.7694126,"lng":-3.5414953}}},"place_id":"ChIJAdKKGQBHTw0RV4YavoM1xUw","types":["locality","political"]},{"address_components":[{"long_name":"Madrid","short_name":"Madrid","types":["locality","political"]},{"long_name":"Trijueque","short_name":"Trijueque","types":["administrative_area_level_4","political"]},{"long_name":"La Alcarria","short_name":"La Alcarria","types":["administrative_area_level_3","political"]},{"long_name":"Guadalajara","short_name":"Guadalajara","types":["administrative_area_level_2","political"]},{"long_name":"Castilla-La Mancha","short_name":"CM","types":["administrative_area_level_1","political"]},{"long_name":"España","short_name":"ES","types":["country","political"]},{"long_name":"19192","short_name":"19192","types":["postal_code"]}],"formatted_address":"19192 Madrid, Guadalajara, España","geometry":{"bounds":{"northeast":{"lat":40.7967415,"lng":-2.9496916},"southwest":{"lat":40.7859553,"lng":-2.9629679}},"location":{"lat":40.79143790000001,"lng":-2.9562873},"location_type":"APPROXIMATE","viewport":{"northeast":{"lat":40.7967415,"lng":-2.9496916},"southwest":{"lat":40.7859553,"lng":-2.9629679}}},"place_id":"ChIJRYN0OMgPQw0R-dC_KCmEZO4","types":["locality","political"]}],"seville, spain":[{"address_components":[{"long_name":"Sevilla","short_name":"Sevilla","types":["locality","political"]},{"long_name":"Sevilla","short_name":"Sevilla","types":["administrative_area_level_4","political"]},{"long_name":"Área Metropolitana de Sevilla","short_name":"Área Metropolitana de Sevilla","types":["administrative_area_level_3","political"]},{"long_name":"Sevilla","short_name":"Sevilla","types":["administrative_area_level_2","political"]},{"long_name":"Andalucía","short_name":"AL","types":["administrative_area_level_1","political"]},{"long_name":"España","short_name":"ES","types":["country","political"]}],"formatted_address":"Sevilla, Sevilla, España","geometry":{"bounds":{"northeast":{"lat":37.4355212,"lng":-5.8884587},"southwest":{"lat":37.3152203,"lng":-6.0216578}},"location":{"lat":37.3890924,"lng":-5.9844589},"location_type":"APPROXIMATE","viewport":{"northeast":{"lat":37.4355212,"lng":-5.8884587},"southwest":{"lat":37.3152203,"lng":-6.0216578}}},"place_id":"ChIJkWK-FBFsEg0RSFb-HGIY8DQ","types":["locality","political"]}],"murcia, spain":[{"address_components":[{"long_name":"Murcia","short_name":"Murcia","types":["locality","political"]},{"long_name":"Murcia","short_name":"Murcia","types":["administrative_area_level_4","political"]},{"long_name":"Huerta de Murcia","short_name":"Huerta de Murcia","types":["administrative_area_level_3","political"]},{"long_name":"Murcia","short_name":"MU","types":["administrative_area_level_2","political"]},{"long_name":"Región de Murcia","short_name":"Región de Murcia","types":["administrative_area_level_1","political"]},{"long_name":"España","short_name":"ES","types":["country","political"]}],"formatted_address":"Murcia, Murcia, España","geometry":{"bounds":{"northeast":{"lat":38.0122586,"lng":-1.1066994},"southwest":{"lat":37.9649768,"lng":-1.1533806}},"location":{"lat":37.9922399,"lng":-1.1306544},"location_type":"APPROXIMATE","viewport":{"northeast":{"lat":38.0122586,"lng":-1.1066994},"southwest":{"lat":37.9649768,"lng":-1.1533806}}},"place_id":"ChIJf4yS1fiBYw0RmqvEOJsSJ9Y","types":["locality","political"]}],"valencia, spain":[{"address_components":[{"long_name":"Valencia","short_name":"Valencia","types":["locality","political"]},{"long_name":"Valencia","short_name":"Valencia","types":["administrative_area_level_4","political"]},{"long_name":"L'Horta de València","short_name":"L'Horta de València","types":["administrative_area_level_3","political"]},{"long_name":"Valencia","short_name":"V","types":["administrative_area_level_2","political"]},{"long_name":"Comunidad Valenciana","short_name":"Comunidad Valenciana","types":["administrative_area_level_1","political"]},{"long_name":"España","short_name":"ES","types":["country","political"]}],"formatted_address":"Valencia, Valencia, España","geometry":{"bounds":{"northeast":{"lat":39.5073225,"lng":-0.2914778},"southwest":{"lat":39.308248,"lng":-0.4315448}},"location":{"lat":39.4699075,"lng":-0.3762881},"location_type":"APPROXIMATE","viewport":{"northeast":{"lat":39.533531,"lng":-0.26517},"southwest":{"lat":39.404337,"lng":-0.467598}}},"place_id":"ChIJb7Dv8ExPYA0ROR1_HwFRo7Q","types":["locality","political"]},{"address_components":[{"long_name":"Valencia de Don Juan","short_name":"Valencia de Don Juan","types":["locality","political"]},{"long_name":"Valencia de Don Juan","short_name":"Valencia de Don Juan","types":["administrative_area_level_4","political"]},{"long_name":"Valencia de Don Juan","short_name":"Valencia de Don Juan","types":["administrative_area_level_3","political"]},{"long_name":"León","short_name":"León","types":["administrative_area_level_2","political"]},{"long_name":"Castilla y León","short_name":"CL","types":["administrative_area_level_1","political"]},{"long_name":"España","short_name":"ES","types":["country","political"]},{"long_name":"24200","short_name":"24200","types":["postal_code"]}],"formatted_address":"24200 Valencia de Don Juan, León, España","geometry":{"bounds":{"northeast":{"lat":42.3019628,"lng":-5.5073416},"southwest":{"lat":42.2847095,"lng":-5.5235751}},"location":{"lat":42.29253,"lng":-5.519119799999999},"location_type":"APPROXIMATE","viewport":{"northeast":{"lat":42.3019628,"lng":-5.5073416},"southwest":{"lat":42.2847095,"lng":-5.5235751}}},"place_id":"ChIJn1yLifwkOA0Rvc5LDUNPaqw","types":["locality","political"]},{"address_components":[{"long_name":"Valencia de las Torres","short_name":"Valencia de las Torres","types":["locality","political"]},{"long_name":"Valencia de las Torres","short_name":"Valencia de las Torres","types":["administrative_area_level_4","political"]},{"long_name":"Campiña Sur","short_name":"Campiña Sur","types":["administrative_area_level_3","political"]},{"long_name":"Badajoz","short_name":"Badajoz","types":["administrative_area_level_2","political"]},{"long_name":"Extremadura","short_name":"EX","types":["administrative_area_level_1","political"]},{"long_name":"España","short_name":"ES","types":["country","political"]},{"long_name":"06444","short_name":"06444","types":["postal_code"]}],"formatted_address":"06444 Valencia de las Torres, Badajoz, España","geometry":{"bounds":{"northeast":{"lat":38.40825950000001,"lng":-5.9980635},"southwest":{"lat":38.39898549999999,"lng":-6.0073861}},"location":{"lat":38.4037607,"lng":-6.003089699999999},"location_type":"APPROXIMATE","viewport":{"northeast":{"lat":38.40825950000001,"lng":-5.9980635},"southwest":{"lat":38.39898549999999,"lng":-6.0073861}}},"place_id":"ChIJq7uH7BKMEw0RgUiY-hgSNUw","types":["locality","political"]},{"address_components":[{"long_name":"Valencia del Ventoso","short_name":"Valencia del Ventoso","types":["locality","political"]},{"long_name":"Valencia del Ventoso","short_name":"Valencia del Ventoso","types":["administrative_area_level_4","political"]},{"long_name":"Zafra Río Bodión","short_name":"Zafra Río Bodión","types":["administrative_area_level_3","political"]},{"long_name":"Badajoz","short_name":"Badajoz","types":["administrative_area_level_2","political"]},{"long_name":"Extremadura","short_name":"EX","types":["administrative_area_level_1","political"]},{"long_name":"España","short_name":"ES","types":["country","political"]},{"long_name":"06330","short_name":"06330","types":["postal_code"]}],"formatted_address":"06330 Valencia del Ventoso, Badajoz, España","geometry":{"bounds":{"northeast":{"lat":38.2711151,"lng":-6.4674439},"southwest":{"lat":38.262296,"lng":-6.480942199999999}},"location":{"lat":38.2659373,"lng":-6.4729904},"location_type":"APPROXIMATE","viewport":{"northeast":{"lat":38.2711151,"lng":-6.4674439},"southwest":{"lat":38.262296,"lng":-6.480942199999999}}},"place_id":"ChIJPcL8rJ9ZEQ0RJXqMavO_25E","types":["locality","political"]},{"address_components":[{"long_name":"Valencia de Alcántara","short_name":"Valencia de Alcántara","types":["locality","political"]},{"long_name":"Valencia de Alcántara","short_name":"Valencia de Alcántara","types":["administrative_area_level_4","political"]},{"long_name":"Sierra de San Pedro","short_name":"Sierra de San Pedro","types":["administrative_area_level_3","political"]},{"long_name":"Cáceres","short_name":"Cáceres","types":["administrative_area_level_2","political"]},{"long_name":"Extremadura","short_name":"EX","types":["administrative_area_level_1","political"]},{"long_name":"España","short_name":"ES","types":["country","political"]},{"long_name":"10500","short_name":"10500","types":["postal_code"]}],"formatted_address":"10500 Valencia de Alcántara, Cáceres, España","geometry":{"bounds":{"northeast":{"lat":39.4211747,"lng":-7.2298387},"southwest":{"lat":39.4012839,"lng":-7.2564845}},"location":{"lat":39.41250429999999,"lng":-7.242901400000001},"location_type":"APPROXIMATE","viewport":{"northeast":{"lat":39.4211747,"lng":-7.2298387},"southwest":{"lat":39.4012839,"lng":-7.2564845}}},"place_id":"ChIJSVpZcsK3Fw0RmjVv_5is2kg","types":["locality","political"]},{"address_components":[{"long_name":"Valencia del Mombuey","short_name":"Valencia del Mombuey","types":["locality","political"]},{"long_name":"Valencia del Mombuey","short_name":"Valencia del Mombuey","types":["administrative_area_level_4","political"]},{"long_name":"Sierra Suroeste","short_name":"Sierra Suroeste","types":["administrative_area_level_3","political"]},{"long_name":"Badajoz","short_name":"Badajoz","types":["administrative_area_level_2","political"]},{"long_name":"Extremadura","short_name":"EX","types":["administrative_area_level_1","political"]},{"long_name":"España","short_name":"ES","types":["country","political"]},{"long_name":"06134","short_name":"06134","types":["postal_code"]}],"formatted_address":"06134 Valencia del Mombuey, Badajoz, España","geometry":{"bounds":{"northeast":{"lat":38.2460765,"lng":-7.1155298},"southwest":{"lat":38.2391334,"lng":-7.1227763}},"location":{"lat":38.242282,"lng":-7.1191138},"location_type":"APPROXIMATE","viewport":{"northeast":{"lat":38.2460765,"lng":-7.1155298},"southwest":{"lat":38.2391334,"lng":-7.1227763}}},"place_id":"ChIJ5-9X-0PYEA0Rf08uz9vlgoA","types":["locality","political"]}],"llodio, spain":[{"address_components":[{"long_name":"Llodio","short_name":"Llodio","types":["locality","political"]},{"long_name":"Laudio / Llodio","short_name":"Laudio / Llodio","types":["administrative_area_level_4","political"]},{"long_name":"Cantábrica Alavesa","short_name":"Cantábrica Alavesa","types":["administrative_area_level_3","political"]},{"long_name":"Álava","short_name":"Álava","types":["administrative_area_level_2","political"]},{"long_name":"País Vasco","short_name":"PV","types":["administrative_area_level_1","political"]},{"long_name":"España","short_name":"ES","types":["country","political"]}],"formatted_address":"Llodio, Álava, España","geometry":{"bounds":{"northeast":{"lat":43.15583300000001,"lng":-2.9377894},"southwest":{"lat":43.1174957,"lng":-2.9842674}},"location":{"lat":43.1434506,"lng":-2.9579897},"location_type":"APPROXIMATE","viewport":{"northeast":{"lat":43.15583300000001,"lng":-2.9377894},"southwest":{"lat":43.1174957,"lng":-2.9842674}}},"place_id":"ChIJpTGMuzGtTw0RU4LF4162UB0","types":["locality","political"]}],"san fernando, ca. spain":[{"address_components":[{"long_name":"San Fernando","short_name":"San Fernando","types":["locality","political"]},{"long_name":"San Fernando","short_name":"San Fernando","types":["administrative_area_level_4","political"]},{"long_name":"Bahía de Cádiz","short_name":"Bahía de Cádiz","types":["administrative_area_level_3","political"]},{"long_name":"Cádiz","short_name":"CA","types":["administrative_area_level_2","political"]},{"long_name":"Andalucía","short_name":"AL","types":["administrative_area_level_1","political"]},{"long_name":"España","short_name":"ES","types":["country","political"]}],"formatted_address":"San Fernando, Cádiz, España","geometry":{"bounds":{"northeast":{"lat":36.4866532,"lng":-6.1804329},"southwest":{"lat":36.4411453,"lng":-6.2226395}},"location":{"lat":36.4718646,"lng":-6.196594800000001},"location_type":"APPROXIMATE","viewport":{"northeast":{"lat":36.4866532,"lng":-6.1804329},"southwest":{"lat":36.4411453,"lng":-6.2226395}}},"place_id":"ChIJRwforyTNDQ0RCjpcQlf6oOo","types":["locality","political"]}],"marbella, spain":[{"address_components":[{"long_name":"Marbella","short_name":"Marbella","types":["locality","political"]},{"long_name":"Marbella","short_name":"Marbella","types":["administrative_area_level_4","political"]},{"long_name":"Costa del Sol","short_name":"Costa del Sol","types":["administrative_area_level_3","political"]},{"long_name":"Málaga","short_name":"Málaga","types":["administrative_area_level_2","political"]},{"long_name":"Andalucía","short_name":"AL","types":["administrative_area_level_1","political"]},{"long_name":"España","short_name":"ES","types":["country","political"]}],"formatted_address":"Marbella, Málaga, España","geometry":{"bounds":{"northeast":{"lat":36.5324463,"lng":-4.7320417},"southwest":{"lat":36.4692554,"lng":-4.9979581}},"location":{"lat":36.510071,"lng":-4.8824474},"location_type":"APPROXIMATE","viewport":{"northeast":{"lat":36.5324463,"lng":-4.7320417},"southwest":{"lat":36.4692554,"lng":-4.9979581}}},"place_id":"ChIJ36tNkAnYcg0Rq-y1B7mdbA4","types":["locality","political"]}],"cartagena, spain":[{"address_components":[{"long_name":"Cartagena","short_name":"Cartagena","types":["locality","political"]},{"long_name":"Cartagena","short_name":"Cartagena","types":["administrative_area_level_4","political"]},{"long_name":"Campo de Cartagena","short_name":"Campo de Cartagena","types":["administrative_area_level_3","political"]},{"long_name":"Murcia","short_name":"MU","types":["administrative_area_level_2","political"]},{"long_name":"Región de Murcia","short_name":"Región de Murcia","types":["administrative_area_level_1","political"]},{"long_name":"España","short_name":"ES","types":["country","political"]}],"formatted_address":"Cartagena, Murcia, España","geometry":{"bounds":{"northeast":{"lat":37.6397102,"lng":-0.9642878999999999},"southwest":{"lat":37.5951131,"lng":-1.0127269}},"location":{"lat":37.6256827,"lng":-0.9965839},"location_type":"APPROXIMATE","viewport":{"northeast":{"lat":37.6397102,"lng":-0.9642878999999999},"southwest":{"lat":37.5951131,"lng":-1.0127269}}},"place_id":"ChIJbbU6pCJCYw0R__n2_s6Q10c","types":["locality","political"]}],"valencia, spain / edinburgh, scotland":[{"address_components":[{"long_name":"Valencia","short_name":"Valencia","types":["locality","political"]},{"long_name":"Valencia","short_name":"Valencia","types":["administrative_area_level_4","political"]},{"long_name":"L'Horta de València","short_name":"L'Horta de València","types":["administrative_area_level_3","political"]},{"long_name":"Valencia","short_name":"V","types":["administrative_area_level_2","political"]},{"long_name":"Comunidad Valenciana","short_name":"Comunidad Valenciana","types":["administrative_area_level_1","political"]},{"long_name":"España","short_name":"ES","types":["country","political"]}],"formatted_address":"Valencia, Valencia, España","geometry":{"bounds":{"northeast":{"lat":39.5073225,"lng":-0.2914778},"southwest":{"lat":39.308248,"lng":-0.4315448}},"location":{"lat":39.4699075,"lng":-0.3762881},"location_type":"APPROXIMATE","viewport":{"northeast":{"lat":39.533531,"lng":-0.26517},"southwest":{"lat":39.404337,"lng":-0.467598}}},"partial_match":true,"place_id":"ChIJb7Dv8ExPYA0ROR1_HwFRo7Q","types":["locality","political"]},{"address_components":[{"long_name":"Valencia de Don Juan","short_name":"Valencia de Don Juan","types":["locality","political"]},{"long_name":"Valencia de Don Juan","short_name":"Valencia de Don Juan","types":["administrative_area_level_4","political"]},{"long_name":"Valencia de Don Juan","short_name":"Valencia de Don Juan","types":["administrative_area_level_3","political"]},{"long_name":"León","short_name":"León","types":["administrative_area_level_2","political"]},{"long_name":"Castilla y León","short_name":"CL","types":["administrative_area_level_1","political"]},{"long_name":"España","short_name":"ES","types":["country","political"]},{"long_name":"24200","short_name":"24200","types":["postal_code"]}],"formatted_address":"24200 Valencia de Don Juan, León, España","geometry":{"bounds":{"northeast":{"lat":42.3019628,"lng":-5.5073416},"southwest":{"lat":42.2847095,"lng":-5.5235751}},"location":{"lat":42.29253,"lng":-5.519119799999999},"location_type":"APPROXIMATE","viewport":{"northeast":{"lat":42.3019628,"lng":-5.5073416},"southwest":{"lat":42.2847095,"lng":-5.5235751}}},"partial_match":true,"place_id":"ChIJn1yLifwkOA0Rvc5LDUNPaqw","types":["locality","political"]},{"address_components":[{"long_name":"Valencia de las Torres","short_name":"Valencia de las Torres","types":["locality","political"]},{"long_name":"Valencia de las Torres","short_name":"Valencia de las Torres","types":["administrative_area_level_4","political"]},{"long_name":"Campiña Sur","short_name":"Campiña Sur","types":["administrative_area_level_3","political"]},{"long_name":"Badajoz","short_name":"Badajoz","types":["administrative_area_level_2","political"]},{"long_name":"Extremadura","short_name":"EX","types":["administrative_area_level_1","political"]},{"long_name":"España","short_name":"ES","types":["country","political"]},{"long_name":"06444","short_name":"06444","types":["postal_code"]}],"formatted_address":"06444 Valencia de las Torres, Badajoz, España","geometry":{"bounds":{"northeast":{"lat":38.40825950000001,"lng":-5.9980635},"southwest":{"lat":38.39898549999999,"lng":-6.0073861}},"location":{"lat":38.4037607,"lng":-6.003089699999999},"location_type":"APPROXIMATE","viewport":{"northeast":{"lat":38.40825950000001,"lng":-5.9980635},"southwest":{"lat":38.39898549999999,"lng":-6.0073861}}},"partial_match":true,"place_id":"ChIJq7uH7BKMEw0RgUiY-hgSNUw","types":["locality","political"]},{"address_components":[{"long_name":"Valencia del Ventoso","short_name":"Valencia del Ventoso","types":["locality","political"]},{"long_name":"Valencia del Ventoso","short_name":"Valencia del Ventoso","types":["administrative_area_level_4","political"]},{"long_name":"Zafra Río Bodión","short_name":"Zafra Río Bodión","types":["administrative_area_level_3","political"]},{"long_name":"Badajoz","short_name":"Badajoz","types":["administrative_area_level_2","political"]},{"long_name":"Extremadura","short_name":"EX","types":["administrative_area_level_1","political"]},{"long_name":"España","short_name":"ES","types":["country","political"]},{"long_name":"06330","short_name":"06330","types":["postal_code"]}],"formatted_address":"06330 Valencia del Ventoso, Badajoz, España","geometry":{"bounds":{"northeast":{"lat":38.2711151,"lng":-6.4674439},"southwest":{"lat":38.262296,"lng":-6.480942199999999}},"location":{"lat":38.2659373,"lng":-6.4729904},"location_type":"APPROXIMATE","viewport":{"northeast":{"lat":38.2711151,"lng":-6.4674439},"southwest":{"lat":38.262296,"lng":-6.480942199999999}}},"partial_match":true,"place_id":"ChIJPcL8rJ9ZEQ0RJXqMavO_25E","types":["locality","political"]},{"address_components":[{"long_name":"Valencia de Alcántara","short_name":"Valencia de Alcántara","types":["locality","political"]},{"long_name":"Valencia de Alcántara","short_name":"Valencia de Alcántara","types":["administrative_area_level_4","political"]},{"long_name":"Sierra de San Pedro","short_name":"Sierra de San Pedro","types":["administrative_area_level_3","political"]},{"long_name":"Cáceres","short_name":"Cáceres","types":["administrative_area_level_2","political"]},{"long_name":"Extremadura","short_name":"EX","types":["administrative_area_level_1","political"]},{"long_name":"España","short_name":"ES","types":["country","political"]},{"long_name":"10500","short_name":"10500","types":["postal_code"]}],"formatted_address":"10500 Valencia de Alcántara, Cáceres, España","geometry":{"bounds":{"northeast":{"lat":39.4211747,"lng":-7.2298387},"southwest":{"lat":39.4012839,"lng":-7.2564845}},"location":{"lat":39.41250429999999,"lng":-7.242901400000001},"location_type":"APPROXIMATE","viewport":{"northeast":{"lat":39.4211747,"lng":-7.2298387},"southwest":{"lat":39.4012839,"lng":-7.2564845}}},"partial_match":true,"place_id":"ChIJSVpZcsK3Fw0RmjVv_5is2kg","types":["locality","political"]},{"address_components":[{"long_name":"Valencia del Mombuey","short_name":"Valencia del Mombuey","types":["locality","political"]},{"long_name":"Valencia del Mombuey","short_name":"Valencia del Mombuey","types":["administrative_area_level_4","political"]},{"long_name":"Sierra Suroeste","short_name":"Sierra Suroeste","types":["administrative_area_level_3","political"]},{"long_name":"Badajoz","short_name":"Badajoz","types":["administrative_area_level_2","political"]},{"long_name":"Extremadura","short_name":"EX","types":["administrative_area_level_1","political"]},{"long_name":"España","short_name":"ES","types":["country","political"]},{"long_name":"06134","short_name":"06134","types":["postal_code"]}],"formatted_address":"06134 Valencia del Mombuey, Badajoz, España","geometry":{"bounds":{"northeast":{"lat":38.2460765,"lng":-7.1155298},"southwest":{"lat":38.2391334,"lng":-7.1227763}},"location":{"lat":38.242282,"lng":-7.1191138},"location_type":"APPROXIMATE","viewport":{"northeast":{"lat":38.2460765,"lng":-7.1155298},"southwest":{"lat":38.2391334,"lng":-7.1227763}}},"partial_match":true,"place_id":"ChIJ5-9X-0PYEA0Rf08uz9vlgoA","types":["locality","political"]}],"alicante, spain":[{"address_components":[{"long_name":"Aeropuerto de Alicante-Elche","short_name":"Aeropuerto de Alicante-Elche","types":["point_of_interest","establishment"]},{"long_name":"El Altet","short_name":"El Altet","types":["locality","political"]},{"long_name":"Alicante","short_name":"A","types":["administrative_area_level_2","political"]},{"long_name":"Comunidad Valenciana","short_name":"Comunidad Valenciana","types":["administrative_area_level_1","political"]},{"long_name":"España","short_name":"ES","types":["country","political"]},{"long_name":"03195","short_name":"03195","types":["postal_code"]}],"formatted_address":"Aeropuerto de Alicante-Elche (ALC), 03195 El Altet, Alicante, España","geometry":{"location":{"lat":38.285483,"lng":-0.560056},"location_type":"APPROXIMATE","viewport":{"northeast":{"lat":38.2868319802915,"lng":-0.558707019708498},"southwest":{"lat":38.2841340197085,"lng":-0.5614049802915021}}},"place_id":"ChIJM9oQTcZKYg0R8b65Jd5Fstw","types":["airport","point_of_interest","establishment"]},{"address_components":[{"long_name":"Alicante","short_name":"Alicante","types":["locality","political"]},{"long_name":"Alicante","short_name":"Alicante","types":["administrative_area_level_4","political"]},{"long_name":"L'Alacantí","short_name":"L'Alacantí","types":["administrative_area_level_3","political"]},{"long_name":"Alicante","short_name":"A","types":["administrative_area_level_2","political"]},{"long_name":"Comunidad Valenciana","short_name":"Comunidad Valenciana","types":["administrative_area_level_1","political"]},{"long_name":"España","short_name":"ES","types":["country","political"]}],"formatted_address":"Alicante, Alicante, España","geometry":{"bounds":{"northeast":{"lat":38.3909328,"lng":-0.4034191},"southwest":{"lat":38.32474879999999,"lng":-0.5416291999999999}},"location":{"lat":38.3459963,"lng":-0.4906855},"location_type":"APPROXIMATE","viewport":{"northeast":{"lat":38.3909328,"lng":-0.4034191},"southwest":{"lat":38.32474879999999,"lng":-0.5416291999999999}}},"place_id":"ChIJS6udO9o1Yg0R44ELrHKofR0","types":["locality","political"]}],"zaragoza, spain":[{"address_components":[{"long_name":"Zaragoza","short_name":"Zaragoza","types":["locality","political"]},{"long_name":"Zaragoza","short_name":"Zaragoza","types":["administrative_area_level_4","political"]},{"long_name":"Zaragoza","short_name":"Zaragoza","types":["administrative_area_level_3","political"]},{"long_name":"Zaragoza","short_name":"Z","types":["administrative_area_level_2","political"]},{"long_name":"Aragón","short_name":"Aragón","types":["administrative_area_level_1","political"]},{"long_name":"España","short_name":"ES","types":["country","political"]}],"formatted_address":"Zaragoza, Zaragoza, España","geometry":{"bounds":{"northeast":{"lat":41.6894079,"lng":-0.8427317},"southwest":{"lat":41.6139746,"lng":-0.9472301000000001}},"location":{"lat":41.6488226,"lng":-0.8890853},"location_type":"APPROXIMATE","viewport":{"northeast":{"lat":41.6894079,"lng":-0.8427317},"southwest":{"lat":41.6139746,"lng":-0.9472301000000001}}},"place_id":"ChIJkY5hXt0UWQ0RqImEFfET30k","types":["locality","political"]}],"valencia (spain)":[{"address_components":[{"long_name":"Valencia","short_name":"Valencia","types":["locality","political"]},{"long_name":"Valencia","short_name":"Valencia","types":["administrative_area_level_4","political"]},{"long_name":"L'Horta de València","short_name":"L'Horta de València","types":["administrative_area_level_3","political"]},{"long_name":"Valencia","short_name":"V","types":["administrative_area_level_2","political"]},{"long_name":"Comunidad Valenciana","short_name":"Comunidad Valenciana","types":["administrative_area_level_1","political"]},{"long_name":"España","short_name":"ES","types":["country","political"]}],"formatted_address":"Valencia, Valencia, España","geometry":{"bounds":{"northeast":{"lat":39.5073225,"lng":-0.2914778},"southwest":{"lat":39.308248,"lng":-0.4315448}},"location":{"lat":39.4699075,"lng":-0.3762881},"location_type":"APPROXIMATE","viewport":{"northeast":{"lat":39.533531,"lng":-0.26517},"southwest":{"lat":39.404337,"lng":-0.467598}}},"place_id":"ChIJb7Dv8ExPYA0ROR1_HwFRo7Q","types":["locality","political"]},{"address_components":[{"long_name":"Valencia de Don Juan","short_name":"Valencia de Don Juan","types":["locality","political"]},{"long_name":"Valencia de Don Juan","short_name":"Valencia de Don Juan","types":["administrative_area_level_4","political"]},{"long_name":"Valencia de Don Juan","short_name":"Valencia de Don Juan","types":["administrative_area_level_3","political"]},{"long_name":"León","short_name":"León","types":["administrative_area_level_2","political"]},{"long_name":"Castilla y León","short_name":"CL","types":["administrative_area_level_1","political"]},{"long_name":"España","short_name":"ES","types":["country","political"]},{"long_name":"24200","short_name":"24200","types":["postal_code"]}],"formatted_address":"24200 Valencia de Don Juan, León, España","geometry":{"bounds":{"northeast":{"lat":42.3019628,"lng":-5.5073416},"southwest":{"lat":42.2847095,"lng":-5.5235751}},"location":{"lat":42.29253,"lng":-5.519119799999999},"location_type":"APPROXIMATE","viewport":{"northeast":{"lat":42.3019628,"lng":-5.5073416},"southwest":{"lat":42.2847095,"lng":-5.5235751}}},"place_id":"ChIJn1yLifwkOA0Rvc5LDUNPaqw","types":["locality","political"]},{"address_components":[{"long_name":"Valencia de las Torres","short_name":"Valencia de las Torres","types":["locality","political"]},{"long_name":"Valencia de las Torres","short_name":"Valencia de las Torres","types":["administrative_area_level_4","political"]},{"long_name":"Campiña Sur","short_name":"Campiña Sur","types":["administrative_area_level_3","political"]},{"long_name":"Badajoz","short_name":"Badajoz","types":["administrative_area_level_2","political"]},{"long_name":"Extremadura","short_name":"EX","types":["administrative_area_level_1","political"]},{"long_name":"España","short_name":"ES","types":["country","political"]},{"long_name":"06444","short_name":"06444","types":["postal_code"]}],"formatted_address":"06444 Valencia de las Torres, Badajoz, España","geometry":{"bounds":{"northeast":{"lat":38.40825950000001,"lng":-5.9980635},"southwest":{"lat":38.39898549999999,"lng":-6.0073861}},"location":{"lat":38.4037607,"lng":-6.003089699999999},"location_type":"APPROXIMATE","viewport":{"northeast":{"lat":38.40825950000001,"lng":-5.9980635},"southwest":{"lat":38.39898549999999,"lng":-6.0073861}}},"place_id":"ChIJq7uH7BKMEw0RgUiY-hgSNUw","types":["locality","political"]},{"address_components":[{"long_name":"Valencia del Ventoso","short_name":"Valencia del Ventoso","types":["locality","political"]},{"long_name":"Valencia del Ventoso","short_name":"Valencia del Ventoso","types":["administrative_area_level_4","political"]},{"long_name":"Zafra Río Bodión","short_name":"Zafra Río Bodión","types":["administrative_area_level_3","political"]},{"long_name":"Badajoz","short_name":"Badajoz","types":["administrative_area_level_2","political"]},{"long_name":"Extremadura","short_name":"EX","types":["administrative_area_level_1","political"]},{"long_name":"España","short_name":"ES","types":["country","political"]},{"long_name":"06330","short_name":"06330","types":["postal_code"]}],"formatted_address":"06330 Valencia del Ventoso, Badajoz, España","geometry":{"bounds":{"northeast":{"lat":38.2711151,"lng":-6.4674439},"southwest":{"lat":38.262296,"lng":-6.480942199999999}},"location":{"lat":38.2659373,"lng":-6.4729904},"location_type":"APPROXIMATE","viewport":{"northeast":{"lat":38.2711151,"lng":-6.4674439},"southwest":{"lat":38.262296,"lng":-6.480942199999999}}},"place_id":"ChIJPcL8rJ9ZEQ0RJXqMavO_25E","types":["locality","political"]},{"address_components":[{"long_name":"Valencia de Alcántara","short_name":"Valencia de Alcántara","types":["locality","political"]},{"long_name":"Valencia de Alcántara","short_name":"Valencia de Alcántara","types":["administrative_area_level_4","political"]},{"long_name":"Sierra de San Pedro","short_name":"Sierra de San Pedro","types":["administrative_area_level_3","political"]},{"long_name":"Cáceres","short_name":"Cáceres","types":["administrative_area_level_2","political"]},{"long_name":"Extremadura","short_name":"EX","types":["administrative_area_level_1","political"]},{"long_name":"España","short_name":"ES","types":["country","political"]},{"long_name":"10500","short_name":"10500","types":["postal_code"]}],"formatted_address":"10500 Valencia de Alcántara, Cáceres, España","geometry":{"bounds":{"northeast":{"lat":39.4211747,"lng":-7.2298387},"southwest":{"lat":39.4012839,"lng":-7.2564845}},"location":{"lat":39.41250429999999,"lng":-7.242901400000001},"location_type":"APPROXIMATE","viewport":{"northeast":{"lat":39.4211747,"lng":-7.2298387},"southwest":{"lat":39.4012839,"lng":-7.2564845}}},"place_id":"ChIJSVpZcsK3Fw0RmjVv_5is2kg","types":["locality","political"]},{"address_components":[{"long_name":"Valencia del Mombuey","short_name":"Valencia del Mombuey","types":["locality","political"]},{"long_name":"Valencia del Mombuey","short_name":"Valencia del Mombuey","types":["administrative_area_level_4","political"]},{"long_name":"Sierra Suroeste","short_name":"Sierra Suroeste","types":["administrative_area_level_3","political"]},{"long_name":"Badajoz","short_name":"Badajoz","types":["administrative_area_level_2","political"]},{"long_name":"Extremadura","short_name":"EX","types":["administrative_area_level_1","political"]},{"long_name":"España","short_name":"ES","types":["country","political"]},{"long_name":"06134","short_name":"06134","types":["postal_code"]}],"formatted_address":"06134 Valencia del Mombuey, Badajoz, España","geometry":{"bounds":{"northeast":{"lat":38.2460765,"lng":-7.1155298},"southwest":{"lat":38.2391334,"lng":-7.1227763}},"location":{"lat":38.242282,"lng":-7.1191138},"location_type":"APPROXIMATE","viewport":{"northeast":{"lat":38.2460765,"lng":-7.1155298},"southwest":{"lat":38.2391334,"lng":-7.1227763}}},"place_id":"ChIJ5-9X-0PYEA0Rf08uz9vlgoA","types":["locality","political"]}],"meira, spain":[{"address_components":[{"long_name":"Meira","short_name":"Meira","types":["locality","political"]},{"long_name":"Meira","short_name":"Meira","types":["administrative_area_level_4","political"]},{"long_name":"Comarca de Meira","short_name":"Comarca de Meira","types":["administrative_area_level_3","political"]},{"long_name":"Lugo","short_name":"Lugo","types":["administrative_area_level_2","political"]},{"long_name":"Galicia","short_name":"GA","types":["administrative_area_level_1","political"]},{"long_name":"España","short_name":"ES","types":["country","political"]},{"long_name":"27240","short_name":"27240","types":["postal_code"]}],"formatted_address":"27240 Meira, Lugo, España","geometry":{"bounds":{"northeast":{"lat":43.2158019,"lng":-7.289854999999999},"southwest":{"lat":43.2108809,"lng":-7.2999748}},"location":{"lat":43.2134256,"lng":-7.2942885},"location_type":"APPROXIMATE","viewport":{"northeast":{"lat":43.2158019,"lng":-7.289854999999999},"southwest":{"lat":43.2108809,"lng":-7.2999748}}},"place_id":"ChIJV-i6gh29MQ0Rpph4XTdeSpo","types":["locality","political"]},{"address_components":[{"long_name":"Meira","short_name":"Meira","types":["locality","political"]},{"long_name":"Cuntis","short_name":"Cuntis","types":["administrative_area_level_4","political"]},{"long_name":"Comarca de Caldas","short_name":"Comarca de Caldas","types":["administrative_area_level_3","political"]},{"long_name":"Pontevedra","short_name":"PO","types":["administrative_area_level_2","political"]},{"long_name":"Galicia","short_name":"GA","types":["administrative_area_level_1","political"]},{"long_name":"España","short_name":"ES","types":["country","political"]},{"long_name":"36678","short_name":"36678","types":["postal_code"]}],"formatted_address":"36678 Meira, Pontevedra, España","geometry":{"bounds":{"northeast":{"lat":42.62574499999999,"lng":-8.5656148},"southwest":{"lat":42.62192830000001,"lng":-8.5693457}},"location":{"lat":42.6239613,"lng":-8.566951099999999},"location_type":"APPROXIMATE","viewport":{"northeast":{"lat":42.62574499999999,"lng":-8.5656148},"southwest":{"lat":42.62192830000001,"lng":-8.5693457}}},"place_id":"ChIJAbO1M1QJLw0RVYZsGg7Tl10","types":["locality","political"]},{"address_components":[{"long_name":"Meira","short_name":"Meira","types":["locality","political"]},{"long_name":"España","short_name":"ES","types":["country","political"]}],"formatted_address":"Meira, España","geometry":{"location":{"lat":42.283333,"lng":-8.716667},"location_type":"APPROXIMATE","viewport":{"northeast":{"lat":42.2846819802915,"lng":-8.715318019708498},"southwest":{"lat":42.2819840197085,"lng":-8.718015980291502}}},"place_id":"ChIJe8Woy5BjLw0R4SoMtILOYig","types":["locality","political"]}],"madrid (spain)":[{"address_components":[{"long_name":"Madrid","short_name":"Madrid","types":["locality","political"]},{"long_name":"Madrid","short_name":"Madrid","types":["administrative_area_level_4","political"]},{"long_name":"Área Metropolitalitana y Corredor del Henares","short_name":"Área Metropolitalitana y Corredor del Henares","types":["administrative_area_level_3","political"]},{"long_name":"Madrid","short_name":"M","types":["administrative_area_level_2","political"]},{"long_name":"Comunidad de Madrid","short_name":"Comunidad de Madrid","types":["administrative_area_level_1","political"]},{"long_name":"España","short_name":"ES","types":["country","political"]}],"formatted_address":"Madrid, Madrid, España","geometry":{"bounds":{"northeast":{"lat":40.5638447,"lng":-3.5249115},"southwest":{"lat":40.3120639,"lng":-3.8341618}},"location":{"lat":40.4167754,"lng":-3.7037902},"location_type":"APPROXIMATE","viewport":{"northeast":{"lat":40.5638447,"lng":-3.5249115},"southwest":{"lat":40.3120639,"lng":-3.8341618}}},"place_id":"ChIJgTwKgJcpQg0RaSKMYcHeNsQ","types":["locality","political"]},{"address_components":[{"long_name":"Madrid","short_name":"Madrid","types":["locality","political"]},{"long_name":"Rucandio","short_name":"Rucandio","types":["administrative_area_level_4","political"]},{"long_name":"La Bureba","short_name":"La Bureba","types":["administrative_area_level_3","political"]},{"long_name":"Burgos","short_name":"Burgos","types":["administrative_area_level_2","political"]},{"long_name":"Castilla y León","short_name":"CL","types":["administrative_area_level_1","political"]},{"long_name":"España","short_name":"ES","types":["country","political"]},{"long_name":"09593","short_name":"09593","types":["postal_code"]}],"formatted_address":"09593 Madrid, Burgos, España","geometry":{"bounds":{"northeast":{"lat":42.77213210000001,"lng":-3.538175},"southwest":{"lat":42.7694126,"lng":-3.5414953}},"location":{"lat":42.7705252,"lng":-3.5404748},"location_type":"APPROXIMATE","viewport":{"northeast":{"lat":42.77213210000001,"lng":-3.538175},"southwest":{"lat":42.7694126,"lng":-3.5414953}}},"place_id":"ChIJAdKKGQBHTw0RV4YavoM1xUw","types":["locality","political"]},{"address_components":[{"long_name":"Madrid","short_name":"Madrid","types":["locality","political"]},{"long_name":"Trijueque","short_name":"Trijueque","types":["administrative_area_level_4","political"]},{"long_name":"La Alcarria","short_name":"La Alcarria","types":["administrative_area_level_3","political"]},{"long_name":"Guadalajara","short_name":"Guadalajara","types":["administrative_area_level_2","political"]},{"long_name":"Castilla-La Mancha","short_name":"CM","types":["administrative_area_level_1","political"]},{"long_name":"España","short_name":"ES","types":["country","political"]},{"long_name":"19192","short_name":"19192","types":["postal_code"]}],"formatted_address":"19192 Madrid, Guadalajara, España","geometry":{"bounds":{"northeast":{"lat":40.7967415,"lng":-2.9496916},"southwest":{"lat":40.7859553,"lng":-2.9629679}},"location":{"lat":40.79143790000001,"lng":-2.9562873},"location_type":"APPROXIMATE","viewport":{"northeast":{"lat":40.7967415,"lng":-2.9496916},"southwest":{"lat":40.7859553,"lng":-2.9629679}}},"place_id":"ChIJRYN0OMgPQw0R-dC_KCmEZO4","types":["locality","political"]}],"sitges, barcelona, spain":[{"address_components":[{"long_name":"Sitges","short_name":"Sitges","types":["locality","political"]},{"long_name":"Sitges","short_name":"Sitges","types":["administrative_area_level_4","political"]},{"long_name":"El Garraf","short_name":"El Garraf","types":["administrative_area_level_3","political"]},{"long_name":"Barcelona","short_name":"B","types":["administrative_area_level_2","political"]},{"long_name":"Catalunya","short_name":"CT","types":["administrative_area_level_1","political"]},{"long_name":"España","short_name":"ES","types":["country","political"]}],"formatted_address":"Sitges, Barcelona, España","geometry":{"bounds":{"northeast":{"lat":41.2482027,"lng":1.8236237},"southwest":{"lat":41.2235738,"lng":1.7833018}},"location":{"lat":41.2371851,"lng":1.805886},"location_type":"APPROXIMATE","viewport":{"northeast":{"lat":41.2482027,"lng":1.8236237},"southwest":{"lat":41.2235738,"lng":1.7833018}}},"place_id":"ChIJ-wiyIEeAoxIR-cgHKfvxYXA","types":["locality","political"]}],"la rioja - spain":[{"address_components":[{"long_name":"La Rioja","short_name":"La Rioja","types":["administrative_area_level_1","political"]},{"long_name":"España","short_name":"ES","types":["country","political"]}],"formatted_address":"La Rioja, España","geometry":{"bounds":{"northeast":{"lat":42.6442647,"lng":-1.6787014},"southwest":{"lat":41.9190339,"lng":-3.1342713}},"location":{"lat":42.2870733,"lng":-2.539603},"location_type":"APPROXIMATE","viewport":{"northeast":{"lat":42.6442647,"lng":-1.6787014},"southwest":{"lat":41.9190339,"lng":-3.1342713}}},"place_id":"ChIJu9z3TpJLRQ0Rjimbpl76f3g","types":["administrative_area_level_1","political"]}],"toledo, spain":[{"address_components":[{"long_name":"Toledo","short_name":"Toledo","types":["locality","political"]},{"long_name":"Toledo","short_name":"Toledo","types":["administrative_area_level_4","political"]},{"long_name":"Vega de Toledo","short_name":"Vega de Toledo","types":["administrative_area_level_3","political"]},{"long_name":"Toledo","short_name":"TO","types":["administrative_area_level_2","political"]},{"long_name":"Castilla-La Mancha","short_name":"CM","types":["administrative_area_level_1","political"]},{"long_name":"España","short_name":"ES","types":["country","political"]}],"formatted_address":"Toledo, Toledo, España","geometry":{"bounds":{"northeast":{"lat":39.88605099999999,"lng":-3.9192423},"southwest":{"lat":39.8383676,"lng":-4.0629256}},"location":{"lat":39.8628316,"lng":-4.027323099999999},"location_type":"APPROXIMATE","viewport":{"northeast":{"lat":39.88605099999999,"lng":-3.9192423},"southwest":{"lat":39.8383676,"lng":-4.0629256}}},"place_id":"ChIJ8f21C60Lag0R_q11auhbf8Y","types":["locality","political"]}],"balearic islands, spain.":[{"address_components":[{"long_name":"Islas Baleares","short_name":"PM","types":["administrative_area_level_1","political"]},{"long_name":"España","short_name":"ES","types":["country","political"]}],"formatted_address":"Islas Baleares, España","geometry":{"bounds":{"northeast":{"lat":40.0945744,"lng":4.3277839},"southwest":{"lat":38.6404833,"lng":1.1572495}},"location":{"lat":39.5341789,"lng":2.8577105},"location_type":"APPROXIMATE","viewport":{"northeast":{"lat":39.9625327,"lng":3.4786846},"southwest":{"lat":39.1207427,"lng":2.3031594}}},"place_id":"ChIJV2Jp3FqSlxIRFU2l-yEDh_8","types":["administrative_area_level_1","political"]},{"address_components":[{"long_name":"Islas Baleares","short_name":"Islas Baleares","types":["natural_feature","establishment"]},{"long_name":"Islas Baleares","short_name":"Islas Baleares","types":["administrative_area_level_2","political"]},{"long_name":"Islas Baleares","short_name":"PM","types":["administrative_area_level_1","political"]},{"long_name":"España","short_name":"ES","types":["country","political"]},{"long_name":"07260","short_name":"07260","types":["postal_code"]}],"formatted_address":"Islas Baleares, 07260, Islas Baleares, España","geometry":{"location":{"lat":39.5,"lng":3},"location_type":"APPROXIMATE","viewport":{"northeast":{"lat":39.5013489802915,"lng":3.001348980291502},"southwest":{"lat":39.4986510197085,"lng":2.998651019708499}}},"place_id":"ChIJeQS-eG2xlxIRA6Wt8m-1IPI","types":["natural_feature","establishment"]},{"address_components":[{"long_name":"Islas Baleares","short_name":"Islas Baleares","types":["administrative_area_level_2","political"]},{"long_name":"Islas Baleares","short_name":"PM","types":["administrative_area_level_1","political"]},{"long_name":"España","short_name":"ES","types":["country","political"]}],"formatted_address":"Islas Baleares, España","geometry":{"bounds":{"northeast":{"lat":40.0945744,"lng":4.3277839},"southwest":{"lat":38.6404833,"lng":1.1572495}},"location":{"lat":39.5341789,"lng":2.8577105},"location_type":"APPROXIMATE","viewport":{"northeast":{"lat":39.9625327,"lng":3.4786846},"southwest":{"lat":39.1207427,"lng":2.3031594}}},"place_id":"ChIJdxaViTWflxIRoMkh126vAgM","types":["administrative_area_level_2","political"]}],"zaragoza (spain)":[{"address_components":[{"long_name":"Zaragoza","short_name":"Zaragoza","types":["locality","political"]},{"long_name":"Zaragoza","short_name":"Zaragoza","types":["administrative_area_level_4","political"]},{"long_name":"Zaragoza","short_name":"Zaragoza","types":["administrative_area_level_3","political"]},{"long_name":"Zaragoza","short_name":"Z","types":["administrative_area_level_2","political"]},{"long_name":"Aragón","short_name":"Aragón","types":["administrative_area_level_1","political"]},{"long_name":"España","short_name":"ES","types":["country","political"]}],"formatted_address":"Zaragoza, Zaragoza, España","geometry":{"bounds":{"northeast":{"lat":41.6894079,"lng":-0.8427317},"southwest":{"lat":41.6139746,"lng":-0.9472301000000001}},"location":{"lat":41.6488226,"lng":-0.8890853},"location_type":"APPROXIMATE","viewport":{"northeast":{"lat":41.6894079,"lng":-0.8427317},"southwest":{"lat":41.6139746,"lng":-0.9472301000000001}}},"place_id":"ChIJkY5hXt0UWQ0RqImEFfET30k","types":["locality","political"]}],"granada(spain)":[{"address_components":[{"long_name":"Granada","short_name":"Granada","types":["locality","political"]},{"long_name":"Granada","short_name":"Granada","types":["administrative_area_level_4","political"]},{"long_name":"Vega de Granada","short_name":"Vega de Granada","types":["administrative_area_level_3","political"]},{"long_name":"Granada","short_name":"Granada","types":["administrative_area_level_2","political"]},{"long_name":"Andalucía","short_name":"AL","types":["administrative_area_level_1","political"]},{"long_name":"España","short_name":"ES","types":["country","political"]}],"formatted_address":"Granada, Granada, España","geometry":{"bounds":{"northeast":{"lat":37.2124648,"lng":-3.5505714},"southwest":{"lat":37.1494277,"lng":-3.6338351}},"location":{"lat":37.1773363,"lng":-3.5985571},"location_type":"APPROXIMATE","viewport":{"northeast":{"lat":37.2124648,"lng":-3.5505714},"southwest":{"lat":37.1494277,"lng":-3.6338351}}},"place_id":"ChIJfcIyLeb8cQ0Rcg1g0533WJI","types":["locality","political"]}],"san sebastián, spain.":[{"address_components":[{"long_name":"San Sebastián","short_name":"San Sebastián","types":["locality","political"]},{"long_name":"San Sebastián","short_name":"San Sebastián","types":["administrative_area_level_4","political"]},{"long_name":"Donostia-San Sebastián","short_name":"Donostia-San Sebastián","types":["administrative_area_level_3","political"]},{"long_name":"Guipúzcoa","short_name":"SS","types":["administrative_area_level_2","political"]},{"long_name":"País Vasco","short_name":"PV","types":["administrative_area_level_1","political"]},{"long_name":"España","short_name":"ES","types":["country","political"]}],"formatted_address":"San Sebastián, Guipúzcoa, España","geometry":{"bounds":{"northeast":{"lat":43.3287143,"lng":-1.9242115},"southwest":{"lat":43.285871,"lng":-2.0235544}},"location":{"lat":43.318334,"lng":-1.9812313},"location_type":"APPROXIMATE","viewport":{"northeast":{"lat":43.3287143,"lng":-1.9242115},"southwest":{"lat":43.285871,"lng":-2.0235544}}},"place_id":"ChIJFf5oO_6vUQ0RSUaGlFnFPuQ","types":["locality","political"]},{"address_components":[{"long_name":"San Sebastián","short_name":"San Sebastián","types":["locality","political"]},{"long_name":"San Sebastián de los Reyes","short_name":"San Sebastián de los Reyes","types":["administrative_area_level_4","political"]},{"long_name":"Área Metropolitalitana y Corredor del Henares","short_name":"Área Metropolitalitana y Corredor del Henares","types":["administrative_area_level_3","political"]},{"long_name":"Madrid","short_name":"M","types":["administrative_area_level_2","political"]},{"long_name":"Comunidad de Madrid","short_name":"Comunidad de Madrid","types":["administrative_area_level_1","political"]},{"long_name":"España","short_name":"ES","types":["country","political"]}],"formatted_address":"San Sebastián, Madrid, España","geometry":{"bounds":{"northeast":{"lat":40.5689982,"lng":-3.6045879},"southwest":{"lat":40.5386416,"lng":-3.6439107}},"location":{"lat":40.5589672,"lng":-3.6261976},"location_type":"APPROXIMATE","viewport":{"northeast":{"lat":40.5689982,"lng":-3.6045879},"southwest":{"lat":40.5386416,"lng":-3.6439107}}},"place_id":"ChIJZwL6--MsQg0Rgdm7RcoHh-M","types":["locality","political"]},{"address_components":[{"long_name":"San Sebastián","short_name":"San Sebastián","types":["locality","political"]},{"long_name":"San Sebastián de la Gomera","short_name":"San Sebastián de la Gomera","types":["administrative_area_level_4","political"]},{"long_name":"Isla de la Gomera","short_name":"Isla de la Gomera","types":["administrative_area_level_3","political"]},{"long_name":"Santa Cruz de Tenerife","short_name":"TF","types":["administrative_area_level_2","political"]},{"long_name":"Canarias","short_name":"CN","types":["administrative_area_level_1","political"]},{"long_name":"España","short_name":"ES","types":["country","political"]}],"formatted_address":"San Sebastián, Santa Cruz de Tenerife, España","geometry":{"bounds":{"northeast":{"lat":28.105537,"lng":-17.1004828},"southwest":{"lat":28.0856267,"lng":-17.1273791}},"location":{"lat":28.0937998,"lng":-17.1098582},"location_type":"APPROXIMATE","viewport":{"northeast":{"lat":28.105537,"lng":-17.1004828},"southwest":{"lat":28.0856267,"lng":-17.1273791}}},"place_id":"ChIJl3Yqk3flagwRSTHtquTgCdU","types":["locality","political"]},{"address_components":[{"long_name":"San Sebastián","short_name":"San Sebastián","types":["locality","political"]},{"long_name":"San Sebastián de los Ballesteros","short_name":"San Sebastián de los Ballesteros","types":["administrative_area_level_4","political"]},{"long_name":"Campiña Sur Cordobesa","short_name":"Campiña Sur Cordobesa","types":["administrative_area_level_3","political"]},{"long_name":"Córdoba","short_name":"Córdoba","types":["administrative_area_level_2","political"]},{"long_name":"Andalucía","short_name":"AL","types":["administrative_area_level_1","political"]},{"long_name":"España","short_name":"ES","types":["country","political"]},{"long_name":"14150","short_name":"14150","types":["postal_code"]}],"formatted_address":"14150 San Sebastián, Córdoba, España","geometry":{"bounds":{"northeast":{"lat":37.6563565,"lng":-4.8182741},"southwest":{"lat":37.6504693,"lng":-4.828339499999999}},"location":{"lat":37.6536024,"lng":-4.8245227},"location_type":"APPROXIMATE","viewport":{"northeast":{"lat":37.6563565,"lng":-4.8182741},"southwest":{"lat":37.6504693,"lng":-4.828339499999999}}},"place_id":"ChIJLX-VoZE7bQ0Rl3ZV2tcOU9Y","types":["locality","political"]},{"address_components":[{"long_name":"San Sebastián","short_name":"San Sebastián","types":["locality","political"]},{"long_name":"Rionansa","short_name":"Rionansa","types":["administrative_area_level_4","political"]},{"long_name":"Saja - Nansa","short_name":"Saja - Nansa","types":["administrative_area_level_3","political"]},{"long_name":"Cantabria","short_name":"S","types":["administrative_area_level_2","political"]},{"long_name":"Cantabria","short_name":"Cantabria","types":["administrative_area_level_1","political"]},{"long_name":"España","short_name":"ES","types":["country","political"]},{"long_name":"39554","short_name":"39554","types":["postal_code"]}],"formatted_address":"39554 San Sebastián, Cantabria, España","geometry":{"bounds":{"northeast":{"lat":43.2031617,"lng":-4.421345},"southwest":{"lat":43.1998222,"lng":-4.4260564}},"location":{"lat":43.2012727,"lng":-4.423996499999999},"location_type":"APPROXIMATE","viewport":{"northeast":{"lat":43.2031617,"lng":-4.421345},"southwest":{"lat":43.1998222,"lng":-4.4260564}}},"place_id":"ChIJN4CK-bOpSQ0R0JMmAYX1BAo","types":["locality","political"]},{"address_components":[{"long_name":"San Sebastián","short_name":"San Sebastián","types":["locality","political"]},{"long_name":"Morcín","short_name":"Morcín","types":["administrative_area_level_4","political"]},{"long_name":"Montaña Central","short_name":"Montaña Central","types":["administrative_area_level_3","political"]},{"long_name":"Asturias","short_name":"O","types":["administrative_area_level_2","political"]},{"long_name":"Principado de Asturias","short_name":"Principado de Asturias","types":["administrative_area_level_1","political"]},{"long_name":"España","short_name":"ES","types":["country","political"]},{"long_name":"33161","short_name":"33161","types":["postal_code"]}],"formatted_address":"33161 San Sebastián, Asturias, España","geometry":{"location":{"lat":43.2615376,"lng":-5.9255135},"location_type":"APPROXIMATE","viewport":{"northeast":{"lat":43.26288658029149,"lng":-5.924164519708498},"southwest":{"lat":43.26018861970849,"lng":-5.926862480291502}}},"place_id":"ChIJwVIXZNvtNg0RrytpVCzAbT0","types":["locality","political"]}],"las palmas de gran canaria (spain)":[{"address_components":[{"long_name":"Las Palmas de Gran Canaria","short_name":"Las Palmas de Gran Canaria","types":["locality","political"]},{"long_name":"Las Palmas de Gran Canaria","short_name":"Las Palmas de Gran Canaria","types":["administrative_area_level_4","political"]},{"long_name":"Las Palmas de Gran Canaria - Cuenca del Guiniguada","short_name":"Las Palmas de Gran Canaria - Cuenca del Guiniguada","types":["administrative_area_level_3","political"]},{"long_name":"Las Palmas","short_name":"Las Palmas","types":["administrative_area_level_2","political"]},{"long_name":"Canarias","short_name":"CN","types":["administrative_area_level_1","political"]},{"long_name":"España","short_name":"ES","types":["country","political"]}],"formatted_address":"Las Palmas de Gran Canaria, Las Palmas, España","geometry":{"bounds":{"northeast":{"lat":28.1563403,"lng":-15.4117481},"southwest":{"lat":28.0783812,"lng":-15.467486}},"location":{"lat":28.1235459,"lng":-15.4362574},"location_type":"APPROXIMATE","viewport":{"northeast":{"lat":28.1563403,"lng":-15.4117481},"southwest":{"lat":28.0783812,"lng":-15.467486}}},"place_id":"ChIJ0ZfAkQ6VQAwRZbo4U6y1Nqs","types":["locality","political"]}],"vigo, spain":[{"address_components":[{"long_name":"Vigo","short_name":"Vigo","types":["locality","political"]},{"long_name":"Vigo","short_name":"Vigo","types":["administrative_area_level_4","political"]},{"long_name":"Comarca de Vigo","short_name":"Comarca de Vigo","types":["administrative_area_level_3","political"]},{"long_name":"Pontevedra","short_name":"PO","types":["administrative_area_level_2","political"]},{"long_name":"Galicia","short_name":"GA","types":["administrative_area_level_1","political"]},{"long_name":"España","short_name":"ES","types":["country","political"]}],"formatted_address":"Vigo, Pontevedra, España","geometry":{"bounds":{"northeast":{"lat":42.2621592,"lng":-8.672200799999999},"southwest":{"lat":42.1900191,"lng":-8.778651}},"location":{"lat":42.24059889999999,"lng":-8.7207268},"location_type":"APPROXIMATE","viewport":{"northeast":{"lat":42.2621592,"lng":-8.672200799999999},"southwest":{"lat":42.1900191,"lng":-8.778651}}},"place_id":"ChIJk8GyYRRiLw0Rn9RLF60dRHs","types":["locality","political"]},{"address_components":[{"long_name":"Vigo","short_name":"Vigo","types":["locality","political"]},{"long_name":"Dodro","short_name":"Dodro","types":["administrative_area_level_4","political"]},{"long_name":"Comarca del Sar","short_name":"Comarca del Sar","types":["administrative_area_level_3","political"]},{"long_name":"A Coruña","short_name":"C","types":["administrative_area_level_2","political"]},{"long_name":"Galicia","short_name":"GA","types":["administrative_area_level_1","political"]},{"long_name":"España","short_name":"ES","types":["country","political"]},{"long_name":"15981","short_name":"15981","types":["postal_code"]}],"formatted_address":"15981 Vigo, A Coruña, España","geometry":{"bounds":{"northeast":{"lat":42.7180477,"lng":-8.6915692},"southwest":{"lat":42.7143793,"lng":-8.6953395}},"location":{"lat":42.7163802,"lng":-8.693412499999999},"location_type":"APPROXIMATE","viewport":{"northeast":{"lat":42.7180477,"lng":-8.6915692},"southwest":{"lat":42.7143793,"lng":-8.6953395}}},"place_id":"ChIJGyaGLPAaLw0RbRgKU4noilw","types":["locality","political"]},{"address_components":[{"long_name":"Vigo","short_name":"Vigo","types":["locality","political"]},{"long_name":"Finisterre","short_name":"Finisterre","types":["administrative_area_level_4","political"]},{"long_name":"Comarca de Finisterre","short_name":"Comarca de Finisterre","types":["administrative_area_level_3","political"]},{"long_name":"A Coruña","short_name":"C","types":["administrative_area_level_2","political"]},{"long_name":"Galicia","short_name":"GA","types":["administrative_area_level_1","political"]},{"long_name":"España","short_name":"ES","types":["country","political"]},{"long_name":"15154","short_name":"15154","types":["postal_code"]}],"formatted_address":"15154 Vigo, A Coruña, España","geometry":{"bounds":{"northeast":{"lat":42.9387883,"lng":-9.2600308},"southwest":{"lat":42.9348156,"lng":-9.2624859}},"location":{"lat":42.9367455,"lng":-9.2610624},"location_type":"APPROXIMATE","viewport":{"northeast":{"lat":42.9387883,"lng":-9.259909369708497},"southwest":{"lat":42.9348156,"lng":-9.262607330291502}}},"place_id":"ChIJJQk2JeotKQ0RRd1o0GysttU","types":["locality","political"]},{"address_components":[{"long_name":"Vigo","short_name":"Vigo","types":["locality","political"]},{"long_name":"Miño","short_name":"Miño","types":["administrative_area_level_4","political"]},{"long_name":"Comarca de Betanzos","short_name":"Comarca de Betanzos","types":["administrative_area_level_3","political"]},{"long_name":"A Coruña","short_name":"C","types":["administrative_area_level_2","political"]},{"long_name":"Galicia","short_name":"GA","types":["administrative_area_level_1","political"]},{"long_name":"España","short_name":"ES","types":["country","political"]},{"long_name":"15635","short_name":"15635","types":["postal_code"]}],"formatted_address":"15635 Vigo, A Coruña, España","geometry":{"bounds":{"northeast":{"lat":43.3248381,"lng":-8.1449987},"southwest":{"lat":43.3222382,"lng":-8.1483031}},"location":{"lat":43.3236462,"lng":-8.147170299999999},"location_type":"APPROXIMATE","viewport":{"northeast":{"lat":43.3248871302915,"lng":-8.1449987},"southwest":{"lat":43.3221891697085,"lng":-8.1483031}}},"place_id":"ChIJh0IAiTltLg0RycIfocDAOaU","types":["locality","political"]},{"address_components":[{"long_name":"Vigo","short_name":"Vigo","types":["locality","political"]},{"long_name":"Chantada","short_name":"Chantada","types":["administrative_area_level_4","political"]},{"long_name":"Comarca de Chantada","short_name":"Comarca de Chantada","types":["administrative_area_level_3","political"]},{"long_name":"Lugo","short_name":"Lugo","types":["administrative_area_level_2","political"]},{"long_name":"Galicia","short_name":"GA","types":["administrative_area_level_1","political"]},{"long_name":"España","short_name":"ES","types":["country","political"]},{"long_name":"27518","short_name":"27518","types":["postal_code"]}],"formatted_address":"27518 Vigo, Lugo, España","geometry":{"bounds":{"northeast":{"lat":42.6437409,"lng":-7.806364500000001},"southwest":{"lat":42.6421407,"lng":-7.8096956}},"location":{"lat":42.6431225,"lng":-7.8079046},"location_type":"APPROXIMATE","viewport":{"northeast":{"lat":42.6442897802915,"lng":-7.806364500000001},"southwest":{"lat":42.6415918197085,"lng":-7.8096956}}},"place_id":"ChIJNa7kwAzfLw0RCZskRs7hNQc","types":["locality","political"]},{"address_components":[{"long_name":"Vigo","short_name":"Vigo","types":["locality","political"]},{"long_name":"Malpica de Bergantiños","short_name":"Malpica de Bergantiños","types":["administrative_area_level_4","political"]},{"long_name":"Comarca de Bergantiños","short_name":"Comarca de Bergantiños","types":["administrative_area_level_3","political"]},{"long_name":"A Coruña","short_name":"C","types":["administrative_area_level_2","political"]},{"long_name":"Galicia","short_name":"GA","types":["administrative_area_level_1","political"]},{"long_name":"España","short_name":"ES","types":["country","political"]},{"long_name":"15113","short_name":"15113","types":["postal_code"]}],"formatted_address":"15113 Vigo, A Coruña, España","geometry":{"bounds":{"northeast":{"lat":43.3088715,"lng":-8.8470151},"southwest":{"lat":43.3074799,"lng":-8.848882}},"location":{"lat":43.3081166,"lng":-8.8478193},"location_type":"APPROXIMATE","viewport":{"northeast":{"lat":43.3095246802915,"lng":-8.846599569708498},"southwest":{"lat":43.3068267197085,"lng":-8.849297530291503}}},"place_id":"ChIJA56SN7uiLg0RN1Evf_V-Ig8","types":["locality","political"]}],"las palmas de gran canaria -spain":[{"address_components":[{"long_name":"Las Palmas de Gran Canaria","short_name":"Las Palmas de Gran Canaria","types":["locality","political"]},{"long_name":"Las Palmas de Gran Canaria","short_name":"Las Palmas de Gran Canaria","types":["administrative_area_level_4","political"]},{"long_name":"Las Palmas de Gran Canaria - Cuenca del Guiniguada","short_name":"Las Palmas de Gran Canaria - Cuenca del Guiniguada","types":["administrative_area_level_3","political"]},{"long_name":"Las Palmas","short_name":"Las Palmas","types":["administrative_area_level_2","political"]},{"long_name":"Canarias","short_name":"CN","types":["administrative_area_level_1","political"]},{"long_name":"España","short_name":"ES","types":["country","political"]}],"formatted_address":"Las Palmas de Gran Canaria, Las Palmas, España","geometry":{"bounds":{"northeast":{"lat":28.1563403,"lng":-15.4117481},"southwest":{"lat":28.0783812,"lng":-15.467486}},"location":{"lat":28.1235459,"lng":-15.4362574},"location_type":"APPROXIMATE","viewport":{"northeast":{"lat":28.1563403,"lng":-15.4117481},"southwest":{"lat":28.0783812,"lng":-15.467486}}},"place_id":"ChIJ0ZfAkQ6VQAwRZbo4U6y1Nqs","types":["locality","political"]}],"alaior, spain":[{"address_components":[{"long_name":"Alaior","short_name":"Alaior","types":["locality","political"]},{"long_name":"Alayor","short_name":"Alayor","types":["administrative_area_level_4","political"]},{"long_name":"Àrea Metropolitana de Maó","short_name":"Àrea Metropolitana de Maó","types":["administrative_area_level_3","political"]},{"long_name":"Illes Balears","short_name":"Illes Balears","types":["administrative_area_level_2","political"]},{"long_name":"Illes Balears","short_name":"PM","types":["administrative_area_level_1","political"]},{"long_name":"España","short_name":"ES","types":["country","political"]},{"long_name":"07730","short_name":"07730","types":["postal_code"]}],"formatted_address":"07730 Alaior, Illes Balears, España","geometry":{"bounds":{"northeast":{"lat":39.9395447,"lng":4.1477966},"southwest":{"lat":39.9277689,"lng":4.1333037}},"location":{"lat":39.9344824,"lng":4.139861199999999},"location_type":"APPROXIMATE","viewport":{"northeast":{"lat":39.9395447,"lng":4.1477966},"southwest":{"lat":39.9277689,"lng":4.1333037}}},"place_id":"ChIJdX_Y-sUgvhIRnqibBe9vIts","types":["locality","political"]}],"tarifa, spain":[{"address_components":[{"long_name":"Tarifa","short_name":"Tarifa","types":["locality","political"]},{"long_name":"Tarifa","short_name":"Tarifa","types":["administrative_area_level_4","political"]},{"long_name":"Campo de Gibraltar","short_name":"Campo de Gibraltar","types":["administrative_area_level_3","political"]},{"long_name":"Cádiz","short_name":"CA","types":["administrative_area_level_2","political"]},{"long_name":"Andalucía","short_name":"AL","types":["administrative_area_level_1","political"]},{"long_name":"España","short_name":"ES","types":["country","political"]}],"formatted_address":"Tarifa, Cádiz, España","geometry":{"bounds":{"northeast":{"lat":36.0203594,"lng":-5.597980799999999},"southwest":{"lat":36.008551,"lng":-5.6113367}},"location":{"lat":36.0143209,"lng":-5.6044497},"location_type":"APPROXIMATE","viewport":{"northeast":{"lat":36.0203594,"lng":-5.597980799999999},"southwest":{"lat":36.008551,"lng":-5.6113367}}},"place_id":"ChIJYxw_wveODA0RY4mkKoPy4Cw","types":["locality","political"]},{"address_components":[{"long_name":"Tarifa","short_name":"Tarifa","types":["locality","political"]},{"long_name":"Cúllar","short_name":"Cúllar","types":["administrative_area_level_4","political"]},{"long_name":"Baza","short_name":"Baza","types":["administrative_area_level_3","political"]},{"long_name":"Granada","short_name":"Granada","types":["administrative_area_level_2","political"]},{"long_name":"Andalucía","short_name":"AL","types":["administrative_area_level_1","political"]},{"long_name":"España","short_name":"ES","types":["country","political"]},{"long_name":"18859","short_name":"18859","types":["postal_code"]}],"formatted_address":"18859 Tarifa, Granada, España","geometry":{"bounds":{"northeast":{"lat":37.587788,"lng":-2.4176124},"southwest":{"lat":37.5861028,"lng":-2.4200084}},"location":{"lat":37.5870261,"lng":-2.4187097},"location_type":"APPROXIMATE","viewport":{"northeast":{"lat":37.5882943802915,"lng":-2.417461419708498},"southwest":{"lat":37.5855964197085,"lng":-2.420159380291502}}},"place_id":"ChIJq-tphExeZQ0RaSikAhO5nCY","types":["locality","political"]}],"vitoria-gasteiz (spain)":[{"address_components":[{"long_name":"Vitoria-Gasteiz","short_name":"Vitoria-Gasteiz","types":["locality","political"]},{"long_name":"Vitoria-Gasteiz","short_name":"Vitoria-Gasteiz","types":["administrative_area_level_4","political"]},{"long_name":"Llanada Alavesa","short_name":"Llanada Alavesa","types":["administrative_area_level_3","political"]},{"long_name":"Álava","short_name":"Álava","types":["administrative_area_level_2","political"]},{"long_name":"País Vasco","short_name":"PV","types":["administrative_area_level_1","political"]},{"long_name":"España","short_name":"ES","types":["country","political"]}],"formatted_address":"Vitoria-Gasteiz, Álava, España","geometry":{"bounds":{"northeast":{"lat":42.8781884,"lng":-2.6316625},"southwest":{"lat":42.8298855,"lng":-2.7226537}},"location":{"lat":42.8591656,"lng":-2.681791800000001},"location_type":"APPROXIMATE","viewport":{"northeast":{"lat":42.8781884,"lng":-2.6316625},"southwest":{"lat":42.8298855,"lng":-2.7226537}}},"place_id":"ChIJW489fTfCTw0RyUmrkYy3bpw","types":["locality","political"]}],"málaga, spain":[{"address_components":[{"long_name":"Málaga","short_name":"Málaga","types":["locality","political"]},{"long_name":"Málaga","short_name":"Málaga","types":["administrative_area_level_4","political"]},{"long_name":"Málaga","short_name":"Málaga","types":["administrative_area_level_3","political"]},{"long_name":"Málaga","short_name":"Málaga","types":["administrative_area_level_2","political"]},{"long_name":"Andalucía","short_name":"AL","types":["administrative_area_level_1","political"]},{"long_name":"España","short_name":"ES","types":["country","political"]}],"formatted_address":"Málaga, Málaga, España","geometry":{"bounds":{"northeast":{"lat":36.7575526,"lng":-4.3394965},"southwest":{"lat":36.6788914,"lng":-4.5590373}},"location":{"lat":36.721261,"lng":-4.4212655},"location_type":"APPROXIMATE","viewport":{"northeast":{"lat":36.7575526,"lng":-4.3394965},"southwest":{"lat":36.6788914,"lng":-4.5590373}}},"place_id":"ChIJLSHbT8RZcg0RzzLKyZLcJWA","types":["locality","political"]},{"address_components":[{"long_name":"Málaga","short_name":"Málaga","types":["locality","political"]},{"long_name":"Málaga del Fresno","short_name":"Málaga del Fresno","types":["administrative_area_level_4","political"]},{"long_name":"Campiña de Guadalajara","short_name":"Campiña de Guadalajara","types":["administrative_area_level_3","political"]},{"long_name":"Guadalajara","short_name":"Guadalajara","types":["administrative_area_level_2","political"]},{"long_name":"Castilla-La Mancha","short_name":"CM","types":["administrative_area_level_1","political"]},{"long_name":"España","short_name":"ES","types":["country","political"]},{"long_name":"19219","short_name":"19219","types":["postal_code"]}],"formatted_address":"19219 Málaga, Guadalajara, España","geometry":{"bounds":{"northeast":{"lat":40.7919719,"lng":-3.2447526},"southwest":{"lat":40.7859045,"lng":-3.2507123}},"location":{"lat":40.7880693,"lng":-3.2470488},"location_type":"APPROXIMATE","viewport":{"northeast":{"lat":40.7919719,"lng":-3.2447526},"southwest":{"lat":40.7859045,"lng":-3.2507123}}},"place_id":"ChIJD7QWLialQw0RaIf023_ZEfM","types":["locality","political"]}],"asturias, spain":[{"address_components":[{"long_name":"Principado de Asturias","short_name":"Principado de Asturias","types":["administrative_area_level_1","political"]},{"long_name":"España","short_name":"ES","types":["country","political"]}],"formatted_address":"Principado de Asturias, España","geometry":{"bounds":{"northeast":{"lat":43.6665323,"lng":-4.5105944},"southwest":{"lat":42.8825428,"lng":-7.1824889}},"location":{"lat":43.3613953,"lng":-5.8593267},"location_type":"APPROXIMATE","viewport":{"northeast":{"lat":43.6665323,"lng":-4.5105944},"southwest":{"lat":42.8825428,"lng":-7.1824889}}},"place_id":"ChIJnbCeYPqMNg0ROp7GfSvztfg","types":["administrative_area_level_1","political"]}],"barcelona spain":[{"address_components":[{"long_name":"Aeropuerto de Barcelona-El Prat","short_name":"Aeropuerto de Barcelona-El Prat","types":["point_of_interest","establishment"]},{"long_name":"El Prat de Llobregat","short_name":"El Prat de Llobregat","types":["locality","political"]},{"long_name":"Barcelona","short_name":"B","types":["administrative_area_level_2","political"]},{"long_name":"Cataluña","short_name":"CT","types":["administrative_area_level_1","political"]},{"long_name":"España","short_name":"ES","types":["country","political"]},{"long_name":"08820","short_name":"08820","types":["postal_code"]}],"formatted_address":"Aeropuerto de Barcelona-El Prat (BCN), 08820 El Prat de Llobregat, Barcelona, España","geometry":{"location":{"lat":41.297445,"lng":2.0832941},"location_type":"APPROXIMATE","viewport":{"northeast":{"lat":41.29879398029151,"lng":2.084643080291502},"southwest":{"lat":41.29609601970851,"lng":2.081945119708498}}},"place_id":"ChIJpY58hGSepBIR15tv-0LpK_M","types":["airport","point_of_interest","establishment"]},{"address_components":[{"long_name":"Barcelona","short_name":"Barcelona","types":["locality","political"]},{"long_name":"Barcelona","short_name":"Barcelona","types":["administrative_area_level_4","political"]},{"long_name":"El Barcelonès","short_name":"El Barcelonès","types":["administrative_area_level_3","political"]},{"long_name":"Barcelona","short_name":"B","types":["administrative_area_level_2","political"]},{"long_name":"Cataluña","short_name":"CT","types":["administrative_area_level_1","political"]},{"long_name":"España","short_name":"ES","types":["country","political"]}],"formatted_address":"Barcelona, Barcelona, España","geometry":{"bounds":{"northeast":{"lat":41.4695761,"lng":2.2280099},"southwest":{"lat":41.320004,"lng":2.0695258}},"location":{"lat":41.3850639,"lng":2.1734035},"location_type":"APPROXIMATE","viewport":{"northeast":{"lat":41.4695761,"lng":2.2280099},"southwest":{"lat":41.320004,"lng":2.0695258}}},"place_id":"ChIJ5TCOcRaYpBIRCmZHTz37sEQ","types":["locality","political"]}],"malaga, spain":[{"address_components":[{"long_name":"Málaga","short_name":"Málaga","types":["locality","political"]},{"long_name":"Málaga","short_name":"Málaga","types":["administrative_area_level_4","political"]},{"long_name":"Málaga","short_name":"Málaga","types":["administrative_area_level_3","political"]},{"long_name":"Málaga","short_name":"Málaga","types":["administrative_area_level_2","political"]},{"long_name":"Andalucía","short_name":"AL","types":["administrative_area_level_1","political"]},{"long_name":"España","short_name":"ES","types":["country","political"]}],"formatted_address":"Málaga, Málaga, España","geometry":{"bounds":{"northeast":{"lat":36.7575526,"lng":-4.3394965},"southwest":{"lat":36.6788914,"lng":-4.5590373}},"location":{"lat":36.721261,"lng":-4.4212655},"location_type":"APPROXIMATE","viewport":{"northeast":{"lat":36.7575526,"lng":-4.3394965},"southwest":{"lat":36.6788914,"lng":-4.5590373}}},"place_id":"ChIJLSHbT8RZcg0RzzLKyZLcJWA","types":["locality","political"]},{"address_components":[{"long_name":"Málaga","short_name":"Málaga","types":["locality","political"]},{"long_name":"Málaga del Fresno","short_name":"Málaga del Fresno","types":["administrative_area_level_4","political"]},{"long_name":"Campiña de Guadalajara","short_name":"Campiña de Guadalajara","types":["administrative_area_level_3","political"]},{"long_name":"Guadalajara","short_name":"Guadalajara","types":["administrative_area_level_2","political"]},{"long_name":"Castilla-La Mancha","short_name":"CM","types":["administrative_area_level_1","political"]},{"long_name":"España","short_name":"ES","types":["country","political"]},{"long_name":"19219","short_name":"19219","types":["postal_code"]}],"formatted_address":"19219 Málaga, Guadalajara, España","geometry":{"bounds":{"northeast":{"lat":40.7919719,"lng":-3.2447526},"southwest":{"lat":40.7859045,"lng":-3.2507123}},"location":{"lat":40.7880693,"lng":-3.2470488},"location_type":"APPROXIMATE","viewport":{"northeast":{"lat":40.7919719,"lng":-3.2447526},"southwest":{"lat":40.7859045,"lng":-3.2507123}}},"place_id":"ChIJD7QWLialQw0RaIf023_ZEfM","types":["locality","political"]}],"palma, spain":[{"address_components":[{"long_name":"Palma de Mallorca","short_name":"Palma de Mallorca","types":["locality","political"]},{"long_name":"Palma de Mallorca","short_name":"Palma de Mallorca","types":["administrative_area_level_4","political"]},{"long_name":"Palma de Mallorca","short_name":"Palma de Mallorca","types":["administrative_area_level_3","political"]},{"long_name":"Islas Baleares","short_name":"Islas Baleares","types":["administrative_area_level_2","political"]},{"long_name":"Islas Baleares","short_name":"PM","types":["administrative_area_level_1","political"]},{"long_name":"España","short_name":"ES","types":["country","political"]}],"formatted_address":"Palma de Mallorca, Islas Baleares, España","geometry":{"bounds":{"northeast":{"lat":39.6020394,"lng":2.6893917},"southwest":{"lat":39.5455466,"lng":2.5919077}},"location":{"lat":39.5696005,"lng":2.6501603},"location_type":"APPROXIMATE","viewport":{"northeast":{"lat":39.6020394,"lng":2.6893917},"southwest":{"lat":39.5455466,"lng":2.5919077}}},"place_id":"ChIJV8caxlmSlxIRxljQwwZUDcQ","types":["locality","political"]},{"address_components":[{"long_name":"Palma","short_name":"Palma","types":["locality","political"]},{"long_name":"Palma del Río","short_name":"Palma del Río","types":["administrative_area_level_4","political"]},{"long_name":"Valle Medio del Guadalquivir","short_name":"Valle Medio del Guadalquivir","types":["administrative_area_level_3","political"]},{"long_name":"Córdoba","short_name":"Córdoba","types":["administrative_area_level_2","political"]},{"long_name":"Andalucía","short_name":"AL","types":["administrative_area_level_1","political"]},{"long_name":"España","short_name":"ES","types":["country","political"]},{"long_name":"14700","short_name":"14700","types":["postal_code"]}],"formatted_address":"14700 Palma, Córdoba, España","geometry":{"bounds":{"northeast":{"lat":37.7127861,"lng":-5.2688443},"southwest":{"lat":37.6910898,"lng":-5.2881446}},"location":{"lat":37.69821710000001,"lng":-5.2801691},"location_type":"APPROXIMATE","viewport":{"northeast":{"lat":37.7127861,"lng":-5.2688443},"southwest":{"lat":37.6910898,"lng":-5.2881446}}},"place_id":"ChIJmwprUSXbEg0RTdXStN5OhCQ","types":["locality","political"]},{"address_components":[{"long_name":"Palma","short_name":"Palma","types":["locality","political"]},{"long_name":"Palma de Gandía","short_name":"Palma de Gandía","types":["administrative_area_level_4","political"]},{"long_name":"Safor","short_name":"Safor","types":["administrative_area_level_3","political"]},{"long_name":"Valencia","short_name":"V","types":["administrative_area_level_2","political"]},{"long_name":"Comunidad Valenciana","short_name":"Comunidad Valenciana","types":["administrative_area_level_1","political"]},{"long_name":"España","short_name":"ES","types":["country","political"]}],"formatted_address":"Palma, Valencia, España","geometry":{"bounds":{"northeast":{"lat":38.92848619999999,"lng":-0.2166692},"southwest":{"lat":38.9220945,"lng":-0.2252653}},"location":{"lat":38.9250593,"lng":-0.2214767},"location_type":"APPROXIMATE","viewport":{"northeast":{"lat":38.92848619999999,"lng":-0.2166692},"southwest":{"lat":38.9220945,"lng":-0.2252653}}},"place_id":"ChIJL1abmGDpYQ0Rm9thRX7ubrY","types":["locality","political"]},{"address_components":[{"long_name":"La Palma","short_name":"La Palma","types":["natural_feature","establishment"]},{"long_name":"España","short_name":"ES","types":["country","political"]}],"formatted_address":"La Palma, España","geometry":{"bounds":{"northeast":{"lat":28.8577162,"lng":-17.724221},"southwest":{"lat":28.4527039,"lng":-18.0071868}},"location":{"lat":28.7133828,"lng":-17.9057813},"location_type":"APPROXIMATE","viewport":{"northeast":{"lat":28.8577162,"lng":-17.724221},"southwest":{"lat":28.4527039,"lng":-18.0071868}}},"place_id":"ChIJO6GHagzyawwRLYgwI9I3II4","types":["natural_feature","establishment"]}],"barcelona (spain)":[{"address_components":[{"long_name":"Aeropuerto de Barcelona-El Prat","short_name":"Aeropuerto de Barcelona-El Prat","types":["point_of_interest","establishment"]},{"long_name":"El Prat de Llobregat","short_name":"El Prat de Llobregat","types":["locality","political"]},{"long_name":"Barcelona","short_name":"B","types":["administrative_area_level_2","political"]},{"long_name":"Cataluña","short_name":"CT","types":["administrative_area_level_1","political"]},{"long_name":"España","short_name":"ES","types":["country","political"]},{"long_name":"08820","short_name":"08820","types":["postal_code"]}],"formatted_address":"Aeropuerto de Barcelona-El Prat (BCN), 08820 El Prat de Llobregat, Barcelona, España","geometry":{"location":{"lat":41.297445,"lng":2.0832941},"location_type":"APPROXIMATE","viewport":{"northeast":{"lat":41.29879398029151,"lng":2.084643080291502},"southwest":{"lat":41.29609601970851,"lng":2.081945119708498}}},"place_id":"ChIJpY58hGSepBIR15tv-0LpK_M","types":["airport","point_of_interest","establishment"]},{"address_components":[{"long_name":"Barcelona","short_name":"Barcelona","types":["locality","political"]},{"long_name":"Barcelona","short_name":"Barcelona","types":["administrative_area_level_4","political"]},{"long_name":"El Barcelonès","short_name":"El Barcelonès","types":["administrative_area_level_3","political"]},{"long_name":"Barcelona","short_name":"B","types":["administrative_area_level_2","political"]},{"long_name":"Cataluña","short_name":"CT","types":["administrative_area_level_1","political"]},{"long_name":"España","short_name":"ES","types":["country","political"]}],"formatted_address":"Barcelona, Barcelona, España","geometry":{"bounds":{"northeast":{"lat":41.4695761,"lng":2.2280099},"southwest":{"lat":41.320004,"lng":2.0695258}},"location":{"lat":41.3850639,"lng":2.1734035},"location_type":"APPROXIMATE","viewport":{"northeast":{"lat":41.4695761,"lng":2.2280099},"southwest":{"lat":41.320004,"lng":2.0695258}}},"place_id":"ChIJ5TCOcRaYpBIRCmZHTz37sEQ","types":["locality","political"]}],"valladolid, spain":[{"address_components":[{"long_name":"Valladolid","short_name":"Valladolid","types":["locality","political"]},{"long_name":"Valladolid","short_name":"Valladolid","types":["administrative_area_level_4","political"]},{"long_name":"Valladolid","short_name":"VA","types":["administrative_area_level_2","political"]},{"long_name":"Castilla y León","short_name":"CL","types":["administrative_area_level_1","political"]},{"long_name":"España","short_name":"ES","types":["country","political"]}],"formatted_address":"Valladolid, Valladolid, España","geometry":{"bounds":{"northeast":{"lat":41.8155086,"lng":-4.6894439},"southwest":{"lat":41.5909983,"lng":-4.9281803}},"location":{"lat":41.652251,"lng":-4.724532099999999},"location_type":"APPROXIMATE","viewport":{"northeast":{"lat":41.6780956,"lng":-4.6894439},"southwest":{"lat":41.5909983,"lng":-4.7754894}}},"place_id":"ChIJk27GCIxyRw0R72uiHNSS_7M","types":["locality","political"]}],"badajoz, spain":[{"address_components":[{"long_name":"Badajoz","short_name":"Badajoz","types":["locality","political"]},{"long_name":"Badajoz","short_name":"Badajoz","types":["administrative_area_level_4","political"]},{"long_name":"Tierra de Badajoz","short_name":"Tierra de Badajoz","types":["administrative_area_level_3","political"]},{"long_name":"Badajoz","short_name":"Badajoz","types":["administrative_area_level_2","political"]},{"long_name":"Extremadura","short_name":"EX","types":["administrative_area_level_1","political"]},{"long_name":"España","short_name":"ES","types":["country","political"]}],"formatted_address":"Badajoz, Badajoz, España","geometry":{"bounds":{"northeast":{"lat":38.9069928,"lng":-6.9406957},"southwest":{"lat":38.8517673,"lng":-7.0346625}},"location":{"lat":38.8794495,"lng":-6.9706535},"location_type":"APPROXIMATE","viewport":{"northeast":{"lat":38.9069928,"lng":-6.9406957},"southwest":{"lat":38.8517673,"lng":-7.0346625}}},"place_id":"ChIJTTVfrD7kFg0RqaQUlzV-jGg","types":["locality","political"]}],"zaragoza,spain":[{"address_components":[{"long_name":"Zaragoza","short_name":"Zaragoza","types":["locality","political"]},{"long_name":"Zaragoza","short_name":"Zaragoza","types":["administrative_area_level_4","political"]},{"long_name":"Zaragoza","short_name":"Zaragoza","types":["administrative_area_level_3","political"]},{"long_name":"Zaragoza","short_name":"Z","types":["administrative_area_level_2","political"]},{"long_name":"Aragón","short_name":"Aragón","types":["administrative_area_level_1","political"]},{"long_name":"España","short_name":"ES","types":["country","political"]}],"formatted_address":"Zaragoza, Zaragoza, España","geometry":{"bounds":{"northeast":{"lat":41.6894079,"lng":-0.8427317},"southwest":{"lat":41.6139746,"lng":-0.9472301000000001}},"location":{"lat":41.6488226,"lng":-0.8890853},"location_type":"APPROXIMATE","viewport":{"northeast":{"lat":41.6894079,"lng":-0.8427317},"southwest":{"lat":41.6139746,"lng":-0.9472301000000001}}},"place_id":"ChIJkY5hXt0UWQ0RqImEFfET30k","types":["locality","political"]}],"barcelona, spain / ghent, belgium":[{"address_components":[{"long_name":"Gante","short_name":"Gante","types":["locality","political"]},{"long_name":"Flandes Oriental","short_name":"OV","types":["administrative_area_level_2","political"]},{"long_name":"Región Flamenca","short_name":"Región Flamenca","types":["administrative_area_level_1","political"]},{"long_name":"Bélgica","short_name":"BE","types":["country","political"]}],"formatted_address":"Gante, Bélgica","geometry":{"bounds":{"northeast":{"lat":51.1880501,"lng":3.8492301},"southwest":{"lat":50.97683,"lng":3.57974}},"location":{"lat":51.0543422,"lng":3.7174243},"location_type":"APPROXIMATE","viewport":{"northeast":{"lat":51.1880501,"lng":3.8492301},"southwest":{"lat":50.97683,"lng":3.57974}}},"partial_match":true,"place_id":"ChIJrUOUM-Fww0cRQFFNL6uZAAQ","types":["locality","political"]}],"andalucia, spain":[{"address_components":[{"long_name":"Andalucía","short_name":"AL","types":["administrative_area_level_1","political"]},{"long_name":"España","short_name":"ES","types":["country","political"]}],"formatted_address":"Andalucía, España","geometry":{"bounds":{"northeast":{"lat":38.7290872,"lng":-1.6301238},"southwest":{"lat":35.9376148,"lng":-7.522877500000001}},"location":{"lat":37.5442706,"lng":-4.7277528},"location_type":"APPROXIMATE","viewport":{"northeast":{"lat":38.7290872,"lng":-1.6301238},"southwest":{"lat":35.9376148,"lng":-7.522877500000001}}},"place_id":"ChIJRcWdz7HZEQ0RD_Pxd01lycE","types":["administrative_area_level_1","political"]}],"atzeneta, spain":[{"address_components":[{"long_name":"Carrer Atzeneta","short_name":"Carrer Atzeneta","types":["route"]},{"long_name":"Almassora","short_name":"Almassora","types":["locality","political"]},{"long_name":"Castelló","short_name":"Castelló","types":["administrative_area_level_2","political"]},{"long_name":"Comunidad Valenciana","short_name":"Comunidad Valenciana","types":["administrative_area_level_1","political"]},{"long_name":"España","short_name":"ES","types":["country","political"]},{"long_name":"12550","short_name":"12550","types":["postal_code"]}],"formatted_address":"Carrer Atzeneta, 12550 Almassora, Castelló, España","geometry":{"bounds":{"northeast":{"lat":39.9678047,"lng":-0.0864088},"southwest":{"lat":39.9653841,"lng":-0.09204699999999999}},"location":{"lat":39.9669424,"lng":-0.0900236},"location_type":"GEOMETRIC_CENTER","viewport":{"northeast":{"lat":39.9679433802915,"lng":-0.0864088},"southwest":{"lat":39.9652454197085,"lng":-0.09204699999999999}}},"partial_match":true,"place_id":"ChIJt-HI8EMHYA0RMA-ZlvWecF8","types":["route"]},{"address_components":[{"long_name":"Calle Atzeneta","short_name":"Calle Atzeneta","types":["route"]},{"long_name":"Villarreal","short_name":"Villarreal","types":["locality","political"]},{"long_name":"Castellón","short_name":"Castellón","types":["administrative_area_level_2","political"]},{"long_name":"Comunidad Valenciana","short_name":"Comunidad Valenciana","types":["administrative_area_level_1","political"]},{"long_name":"España","short_name":"ES","types":["country","political"]},{"long_name":"12540","short_name":"12540","types":["postal_code"]}],"formatted_address":"Calle Atzeneta, 12540 Villarreal, Castellón, España","geometry":{"bounds":{"northeast":{"lat":39.946537,"lng":-0.1122988},"southwest":{"lat":39.9459482,"lng":-0.1128411}},"location":{"lat":39.9463203,"lng":-0.1125109},"location_type":"GEOMETRIC_CENTER","viewport":{"northeast":{"lat":39.94759158029149,"lng":-0.111220969708498},"southwest":{"lat":39.94489361970849,"lng":-0.113918930291502}}},"partial_match":true,"place_id":"ChIJgyQN5qkHYA0REb5M5LRLXKA","types":["route"]},{"address_components":[{"long_name":"Carrer Atzeneta","short_name":"Carrer Atzeneta","types":["route"]},{"long_name":"Vila-real","short_name":"Vila-real","types":["locality","political"]},{"long_name":"Castelló","short_name":"Castelló","types":["administrative_area_level_2","political"]},{"long_name":"Comunidad Valenciana","short_name":"Comunidad Valenciana","types":["administrative_area_level_1","political"]},{"long_name":"España","short_name":"ES","types":["country","political"]},{"long_name":"12540","short_name":"12540","types":["postal_code"]}],"formatted_address":"Carrer Atzeneta, 12540 Vila-real, Castelló, España","geometry":{"bounds":{"northeast":{"lat":39.945611,"lng":-0.1130897},"southwest":{"lat":39.945077,"lng":-0.1134988}},"location":{"lat":39.945611,"lng":-0.1130911},"location_type":"GEOMETRIC_CENTER","viewport":{"northeast":{"lat":39.94669298029149,"lng":-0.111945269708498},"southwest":{"lat":39.9439950197085,"lng":-0.114643230291502}}},"partial_match":true,"place_id":"ChIJrV3DiqkHYA0RZMy2-juE9QA","types":["route"]},{"address_components":[{"long_name":"Carrer D'Atzeneta","short_name":"Carrer D'Atzeneta","types":["route"]},{"long_name":"Castelló de la Plana","short_name":"Castelló de la Plana","types":["locality","political"]},{"long_name":"Castelló","short_name":"Castelló","types":["administrative_area_level_2","political"]},{"long_name":"Comunidad Valenciana","short_name":"Comunidad Valenciana","types":["administrative_area_level_1","political"]},{"long_name":"España","short_name":"ES","types":["country","political"]},{"long_name":"12006","short_name":"12006","types":["postal_code"]}],"formatted_address":"Carrer D'Atzeneta, 12006 Castelló de la Plana, Castelló, España","geometry":{"bounds":{"northeast":{"lat":39.9840019,"lng":-0.0488345},"southwest":{"lat":39.9833387,"lng":-0.0506731}},"location":{"lat":39.9836774,"lng":-0.04975019999999999},"location_type":"GEOMETRIC_CENTER","viewport":{"northeast":{"lat":39.9850192802915,"lng":-0.04840481970849797},"southwest":{"lat":39.9823213197085,"lng":-0.05110278029150203}}},"partial_match":true,"place_id":"ChIJYdfMBif-Xw0R1CDuv2mABQU","types":["route"]},{"address_components":[{"long_name":"Carrer d'Atzeneta","short_name":"Carrer d'Atzeneta","types":["route"]},{"long_name":"València","short_name":"València","types":["locality","political"]},{"long_name":"Valencia","short_name":"V","types":["administrative_area_level_2","political"]},{"long_name":"Comunidad Valenciana","short_name":"Comunidad Valenciana","types":["administrative_area_level_1","political"]},{"long_name":"España","short_name":"ES","types":["country","political"]}],"formatted_address":"Carrer d'Atzeneta, València, Valencia, España","geometry":{"bounds":{"northeast":{"lat":39.4591806,"lng":-0.3592408},"southwest":{"lat":39.4583173,"lng":-0.3598833}},"location":{"lat":39.458749,"lng":-0.359507},"location_type":"GEOMETRIC_CENTER","viewport":{"northeast":{"lat":39.4600979302915,"lng":-0.3582130697084979},"southwest":{"lat":39.4573999697085,"lng":-0.360911030291502}}},"partial_match":true,"place_id":"ChIJ05UdwMNIYA0RHr4OLYrnfps","types":["route"]},{"address_components":[{"long_name":"Avinguda D' Atzeneta","short_name":"Avinguda D' Atzeneta","types":["route"]},